local_timestamp,sim_elapsed_s,sim_is_running,ground_locked,sensed_altitude_m,sensed_position_enu_x_m,sensed_position_enu_y_m,sensed_position_enu_z_m,sensed_gps_latitude_deg,sensed_gps_longitude_deg,sensed_gps_altitude_m,sensed_gps_velocity_north_mps,sensed_gps_velocity_east_mps,sensed_gps_velocity_down_mps,sensed_battery_voltage_v,sensed_battery_soc_percent,sensed_motor_temperature_c,sensed_motor_rpm,altitude_m,position_enu_x_m,position_enu_y_m,position_enu_z_m,velocity_enu_x_mps,velocity_enu_y_mps,velocity_enu_z_mps,yaw_rad,pitch_rad,roll_rad,target_altitude_m,target_error_m,p_component_rpm,i_component_rpm,d_component_rpm,desired_rpm,common_motor_rpm,yaw_control_rpm,pitch_control_rpm,roll_control_rpm,desired_motor_rpm_0,desired_motor_rpm_1,desired_motor_rpm_2,desired_motor_rpm_3,battery_voltage_v,battery_soc_percent,motor_temperature_c,motor_rpm,motor_current_a,battery_capacity_mah,gps_latitude_deg,gps_longitude_deg,gps_altitude_m,gps_velocity_north_mps,gps_velocity_east_mps,gps_velocity_down_mps,weather_total_ax,weather_total_ay,weather_total_az,weather_steady_ax,weather_steady_ay,weather_steady_az,weather_gust_ax,weather_gust_ay,weather_gust_az,weather_turb_ax,weather_turb_ay,weather_turb_az
2026-03-04 06:56:17,0.010000,1,1,0.000000,0.000000,0.000000,0.000000,-0.000013,0.000017,0.000000,0.508197,0.068672,-0.012447,16.838981,100.000000,150.096412,0.000000,0.000000,0.000000,0.000000,0.000000,0.000000,0.000000,0.000000,0.000000,-1.300000,-1.300000,50.000000,50.000000,5000000.000000,0.000000,0.000000,5011400.000000,5011400.000000,0.000000,-390.000000,-390.000000,20000.000000,20000.000000,20000.000000,20000.000000,16.800000,99.999671,25.000299,300.000000,0.444444,1499.995062,0.000000,0.000000,0.000000,0.000000,0.000000,-0.000000,0.000000,0.000000,0.000000,0.000000,0.000000,0.000000,0.000000,0.000000,0.000000,0.000000,0.000000,0.000000
2026-03-04 06:56:17,0.020000,1,1,0.433625,0.000000,0.000000,0.000000,-0.000003,-0.000001,0.000000,0.386872,0.204474,-0.595104,16.812299,99.999671,150.042924,300.000000,0.000000,0.000000,0.000000,0.000000,0.000000,0.000000,0.000000,0.000000,1.300000,-1.300000,50.000000,49.566375,4956637.472554,0.000000,0.000000,4968037.472554,4968037.472554,0.000000,780.000000,0.000000,20000.000000,20000.000000,20000.000000,20000.000000,16.799974,99.999012,25.000896,600.000000,0.888889,1499.985185,0.000000,0.000000,0.000000,0.000000,0.000000,-0.000000,0.000000,0.000000,0.000000,0.000000,0.000000,0.000000,0.000000,0.000000,0.000000,0.000000,0.000000,0.000000
2026-03-04 06:56:17,0.030000,1,1,0.046293,0.000000,0.000000,0.000000,0.000008,-0.000009,0.680565,0.129927,0.368328,-0.338431,16.825359,99.999012,150.318652,600.000000,0.000000,0.000000,0.000000,0.000000,0.000000,0.000000,0.000000,0.000000,1.300000,-1.300000,50.000000,49.953707,4995370.705207,0.000000,0.000000,5006770.705207,5006770.705207,0.000000,0.000000,0.000000,20000.000000,20000.000000,20000.000000,20000.000000,16.799921,99.998025,25.001791,900.000000,1.333333,1499.970370,0.000000,0.000000,0.000000,0.000000,0.000000,-0.000000,0.000000,0.000000,0.000000,0.000000,0.000000,0.000000,0.000000,0.000000,0.000000,0.000000,0.000000,0.000000
2026-03-04 06:56:17,0.040000,1,1,0.067142,0.000000,0.000000,0.000000,0.000014,-0.000010,0.262208,-0.053069,0.237877,-0.304843,16.796610,99.998025,150.360866,900.000000,0.000000,0.000000,0.000000,0.000000,0.000000,0.000000,0.000000,0.000000,1.300000,1.300000,50.000000,49.932858,4993285.772408,0.000000,0.000000,5004685.772408,5004685.772408,0.000000,0.000000,780.000000,20000.000000,20000.000000,20000.000000,20000.000000,16.799842,99.996708,25.002984,1200.000000,1.777778,1499.950617,0.000000,0.000000,0.000000,0.000000,0.000000,-0.000000,0.000000,0.000000,0.000000,0.000000,0.000000,0.000000,0.000000,0.000000,0.000000,0.000000,0.000000,0.000000
2026-03-04 06:56:17,0.050000,1,1,0.181810,0.000000,0.000000,0.000000,0.000017,-0.000003,0.000000,0.419462,-0.476466,0.019098,16.849753,99.996708,149.916634,1200.000000,0.000000,0.000000,0.000000,0.000000,0.000000,0.000000,0.000000,0.000000,-1.300000,1.300000,50.000000,49.818190,4981819.012223,0.000000,0.000000,4993219.012223,4993219.012223,0.000000,-780.000000,0.000000,20000.000000,20000.000000,20000.000000,20000.000000,16.799737,99.995062,25.004474,1500.000000,2.222222,1499.925926,0.000000,0.000000,0.000000,0.000000,0.000000,-0.000000,0.000000,0.000000,0.000000,0.000000,0.000000,0.000000,0.000000,0.000000,0.000000,0.000000,0.000000,0.000000
2026-03-04 06:56:17,0.060000,1,1,0.000000,0.000000,0.000000,0.000000,0.000018,0.000015,0.000000,0.002542,0.375369,0.152482,16.846424,99.995062,150.120963,1500.000000,0.000000,0.000000,0.000000,0.000000,0.000000,0.000000,0.000000,0.000000,1.300000,-1.300000,50.000000,50.000000,5000000.000000,0.000000,0.000000,5011400.000000,5011400.000000,0.000000,780.000000,-780.000000,20000.000000,20000.000000,20000.000000,20000.000000,16.799605,99.993086,25.006261,1800.000000,2.666667,1499.896296,0.000000,0.000000,0.000000,0.000000,0.000000,-0.000000,0.000000,0.000000,0.000000,0.000000,0.000000,0.000000,0.000000,0.000000,0.000000,0.000000,0.000000,0.000000
2026-03-04 06:56:17,0.070000,1,1,0.000000,0.000000,0.000000,0.000000,0.000014,0.000009,1.822343,0.730368,0.452248,-0.108769,16.829183,99.993086,149.991385,1800.000000,0.000000,0.000000,0.000000,0.000000,0.000000,0.000000,0.000000,0.000000,-1.300000,-1.300000,50.000000,50.000000,5000000.000000,0.000000,0.000000,5011400.000000,5011400.000000,0.000000,-780.000000,0.000000,20000.000000,20000.000000,20000.000000,20000.000000,16.799447,99.990782,25.008346,2100.000000,3.111111,1499.861728,0.000000,0.000000,0.000000,0.000000,0.000000,-0.000000,0.000000,0.000000,0.000000,0.000000,0.000000,0.000000,0.000000,0.000000,0.000000,0.000000,0.000000,0.000000
2026-03-04 06:56:17,0.080000,1,1,0.000000,0.000000,0.000000,0.000000,0.000015,-0.000007,0.907413,-0.136583,0.001454,0.354686,16.827823,99.990782,150.247816,2100.000000,0.000000,0.000000,0.000000,0.000000,0.000000,0.000000,0.000000,0.000000,1.300000,1.300000,50.000000,50.000000,5000000.000000,0.000000,0.000000,5011400.000000,5011400.000000,0.000000,780.000000,780.000000,20000.000000,20000.000000,20000.000000,20000.000000,16.799263,99.988148,25.010727,2400.000000,3.555556,1499.822222,0.000000,0.000000,0.000000,0.000000,0.000000,-0.000000,0.000000,0.000000,0.000000,0.000000,0.000000,0.000000,0.000000,0.000000,0.000000,0.000000,0.000000,0.000000
2026-03-04 06:56:17,0.090000,1,1,0.053706,0.000000,0.000000,0.000000,-0.000002,0.000003,0.000000,0.392589,-0.379905,0.261957,16.766446,99.988148,150.405981,2400.000000,0.000000,0.000000,0.000000,0.000000,0.000000,0.000000,0.000000,0.000000,-1.300000,1.300000,50.000000,49.946294,4994629.363743,0.000000,0.000000,5006029.363743,5006029.363743,0.000000,-780.000000,0.000000,20000.000000,20000.000000,20000.000000,20000.000000,16.799052,99.985185,25.013404,2700.000000,4.000000,1499.777778,0.000000,0.000000,0.000000,0.000000,0.000000,-0.000000,0.000000,0.000000,0.000000,0.000000,0.000000,0.000000,0.000000,0.000000,0.000000,0.000000,0.000000,0.000000
2026-03-04 06:56:17,0.100000,1,1,0.322859,0.000000,0.000000,0.000000,0.000015,-0.000008,1.647604,-0.184532,-0.233236,0.431459,16.793661,99.985185,149.937764,2700.000000,0.000000,0.000000,0.000000,0.000000,0.000000,0.000000,0.000000,0.000000,1.300000,-1.300000,50.000000,49.677141,4967714.062101,0.000000,0.000000,4979114.062101,4979114.062101,0.000000,780.000000,-780.000000,20000.000000,20000.000000,20000.000000,20000.000000,16.798815,99.981893,25.016377,3000.000000,4.444444,1499.728395,0.000000,0.000000,0.000000,0.000000,0.000000,-0.000000,0.000000,0.000000,0.000000,0.000000,0.000000,0.000000,0.000000,0.000000,0.000000,0.000000,0.000000,0.000000
2026-03-04 06:56:17,0.110000,1,1,0.000000,0.000000,0.000000,0.000000,-0.000018,-0.000011,0.000000,0.026116,-0.078653,-0.000005,16.796733,99.981893,150.185232,3000.000000,0.000000,0.000000,0.000000,0.000000,0.000000,0.000000,0.000000,0.000000,-1.300000,-1.300000,50.000000,50.000000,5000000.000000,0.000000,0.000000,5011400.000000,5011400.000000,0.000000,-780.000000,0.000000,20000.000000,20000.000000,20000.000000,20000.000000,16.798551,99.978272,25.019646,3300.000000,4.888889,1499.674074,0.000000,0.000000,0.000000,0.000000,0.000000,-0.000000,0.000000,0.000000,0.000000,0.000000,0.000000,0.000000,0.000000,0.000000,0.000000,0.000000,0.000000,0.000000
2026-03-04 06:56:17,0.120000,1,1,0.126503,0.000000,0.000000,0.000000,-0.000004,0.000002,0.000000,0.143816,0.042182,0.147787,16.825366,99.978272,149.941849,3300.000000,0.000000,0.000000,0.000000,0.000000,0.000000,0.000000,0.000000,0.000000,-1.300000,-1.300000,50.000000,49.873497,4987349.665205,0.000000,0.000000,4998749.665205,4998749.665205,0.000000,0.000000,0.000000,20000.000000,20000.000000,20000.000000,20000.000000,16.798262,99.974321,25.023210,3600.000000,5.333333,1499.614815,0.000000,0.000000,0.000000,0.000000,0.000000,-0.000000,0.000000,0.000000,0.000000,0.000000,0.000000,0.000000,0.000000,0.000000,0.000000,0.000000,0.000000,0.000000
2026-03-04 06:56:17,0.130000,1,1,0.101842,0.000000,0.000000,0.000000,0.000011,-0.000019,3.810639,0.268854,0.365138,0.224508,16.789343,99.974321,149.764111,3600.000000,0.000000,0.000000,0.000000,0.000000,0.000000,0.000000,0.000000,0.000000,-1.300000,-1.300000,50.000000,49.898158,4989815.775630,0.000000,0.000000,5001215.775630,5001215.775630,0.000000,0.000000,0.000000,20000.000000,20000.000000,20000.000000,20000.000000,16.797946,99.970041,25.027069,3900.000000,5.777778,1499.550617,0.000000,0.000000,0.000000,0.000000,0.000000,-0.000000,0.000000,0.000000,0.000000,0.000000,0.000000,0.000000,0.000000,0.000000,0.000000,0.000000,0.000000,0.000000
2026-03-04 06:56:17,0.140000,1,1,0.095740,0.000000,0.000000,0.000000,0.000000,0.000010,1.298569,-0.135019,0.203626,-0.792043,16.790031,99.970041,150.041922,3900.000000,0.000000,0.000000,0.000000,0.000000,0.000000,0.000000,0.000000,0.000000,1.300000,1.300000,50.000000,49.904260,4990425.970028,0.000000,0.000000,5001825.970028,5001825.970028,0.000000,780.000000,780.000000,20000.000000,20000.000000,20000.000000,20000.000000,16.797603,99.965432,25.031222,4200.000000,6.222222,1499.481481,0.000000,0.000000,0.000000,0.000000,0.000000,-0.000000,0.000000,0.000000,0.000000,0.000000,0.000000,0.000000,0.000000,0.000000,0.000000,0.000000,0.000000,0.000000
2026-03-04 06:56:17,0.150000,1,1,0.000000,0.000000,0.000000,0.000000,-0.000021,-0.000016,0.000000,0.118974,0.077856,-0.264337,16.815058,99.965432,149.489512,4200.000000,0.000000,0.000000,0.000000,0.000000,0.000000,0.000000,0.000000,0.000000,-1.300000,1.300000,50.000000,50.000000,5000000.000000,0.000000,0.000000,5011400.000000,5011400.000000,0.000000,-780.000000,0.000000,20000.000000,20000.000000,20000.000000,20000.000000,16.797235,99.960494,25.035670,4500.000000,6.666667,1499.407407,0.000000,0.000000,0.000000,0.000000,0.000000,-0.000000,0.000000,0.000000,0.000000,0.000000,0.000000,0.000000,0.000000,0.000000,0.000000,0.000000,0.000000,0.000000
2026-03-04 06:56:17,0.160000,1,1,0.063005,0.000000,0.000000,0.000000,-0.000004,-0.000002,0.000000,0.267219,-0.276501,-0.238610,16.785049,99.960494,150.174799,4500.000000,0.000000,0.000000,0.000000,0.000000,0.000000,0.000000,0.000000,0.000000,-1.300000,1.300000,50.000000,49.936995,4993699.462413,0.000000,0.000000,5005099.462413,5005099.462413,0.000000,0.000000,0.000000,20000.000000,20000.000000,20000.000000,20000.000000,16.796840,99.955226,25.040412,4800.000000,7.111111,1499.328395,0.000000,0.000000,0.000000,0.000000,0.000000,-0.000000,0.000000,0.000000,0.000000,0.000000,0.000000,0.000000,0.000000,0.000000,0.000000,0.000000,0.000000,0.000000
2026-03-04 06:56:17,0.170000,1,1,0.000000,0.000000,0.000000,0.000000,-0.000001,-0.000001,0.520182,0.065096,-0.216673,-0.228491,16.791555,99.955226,150.180657,4800.000000,0.000000,0.000000,0.000000,0.000000,0.000000,0.000000,0.000000,0.000000,1.300000,-1.300000,50.000000,50.000000,5000000.000000,0.000000,0.000000,5011400.000000,5011400.000000,0.000000,780.000000,-780.000000,20000.000000,20000.000000,20000.000000,20000.000000,16.796418,99.949630,25.045448,5100.000000,7.555556,1499.244444,0.000000,0.000000,0.000000,0.000000,0.000000,-0.000000,0.000000,0.000000,0.000000,0.000000,0.000000,0.000000,0.000000,0.000000,0.000000,0.000000,0.000000,0.000000
2026-03-04 06:56:17,0.180000,1,1,0.000000,0.000000,0.000000,0.000000,-0.000016,0.000004,2.311091,0.061252,-0.021903,-0.061957,16.865794,99.949630,150.428158,5100.000000,0.000000,0.000000,0.000000,0.000000,0.000000,0.000000,0.000000,0.000000,0.156320,-1.300000,50.000000,50.000000,5000000.000000,0.000000,0.000000,5011400.000000,5011400.000000,0.000000,-343.103852,0.000000,20000.000000,20000.000000,20000.000000,20000.000000,16.795970,99.943704,25.050777,5400.000000,8.000000,1499.155556,0.000000,0.000000,0.000000,0.000000,0.000000,-0.000000,0.000000,0.000000,0.000000,0.000000,0.000000,0.000000,0.000000,0.000000,0.000000,0.000000,0.000000,0.000000
2026-03-04 06:56:17,0.190000,1,1,0.087867,0.000000,0.000000,0.000000,-0.000004,0.000008,1.228538,-0.181970,-0.229215,0.438968,16.795711,99.943704,150.176292,5400.000000,0.000000,0.000000,0.000000,0.000000,0.000000,0.000000,0.000000,0.000000,1.300000,1.300000,50.000000,49.912133,4991213.289056,0.000000,0.000000,5002613.289056,5002613.289056,0.000000,343.103852,780.000000,20000.000000,20000.000000,20000.000000,20000.000000,16.795496,99.937449,25.056400,5700.000000,8.444444,1499.061728,0.000000,0.000000,0.000000,0.000000,0.000000,-0.000000,0.000000,0.000000,0.000000,0.000000,0.000000,0.000000,0.000000,0.000000,0.000000,0.000000,0.000000,0.000000
2026-03-04 06:56:17,0.200000,1,1,0.139105,0.000000,0.000000,0.000000,-0.000007,-0.000013,0.000000,0.313814,0.008902,-0.038386,16.860471,99.937449,150.047733,5700.000000,0.000000,0.000000,0.000000,0.000000,0.000000,0.000000,0.000000,0.000000,-1.300000,-1.300000,50.000000,49.860895,4986089.548278,0.000000,0.000000,4997489.548278,4997489.548278,0.000000,-780.000000,-780.000000,20000.000000,20000.000000,20000.000000,20000.000000,16.794996,99.930864,25.062315,6000.000000,8.888889,1498.962963,0.000000,0.000000,0.000000,0.000000,0.000000,-0.000000,0.000000,0.000000,0.000000,0.000000,0.000000,0.000000,0.000000,0.000000,0.000000,0.000000,0.000000,0.000000
2026-03-04 06:56:17,0.210000,1,1,0.123754,0.000000,0.000000,0.000000,0.000003,-0.000024,0.000000,-0.120695,0.445176,-0.056190,16.824347,99.930864,150.043146,6000.000000,0.000000,0.000000,0.000000,0.000000,0.000000,0.000000,0.000000,0.000000,1.300000,-1.300000,50.000000,49.876246,4987624.555122,0.000000,0.000000,4999024.555122,4999024.555122,0.000000,780.000000,0.000000,20000.000000,20000.000000,20000.000000,20000.000000,16.794469,99.923951,25.068523,6300.000000,9.333333,1498.859259,0.000000,0.000000,0.000000,0.000000,0.000000,-0.000000,0.000000,0.000000,0.000000,0.000000,0.000000,0.000000,0.000000,0.000000,0.000000,0.000000,0.000000,0.000000
2026-03-04 06:56:17,0.220000,1,1,0.000000,0.000000,0.000000,0.000000,0.000002,0.000011,0.153918,0.276495,0.111112,0.369679,16.805898,99.923951,150.076408,6300.000000,0.000000,0.000000,0.000000,0.000000,0.000000,0.000000,0.000000,0.000000,-1.300000,1.300000,50.000000,50.000000,5000000.000000,0.000000,0.000000,5011400.000000,5011400.000000,0.000000,-780.000000,780.000000,20000.000000,20000.000000,20000.000000,20000.000000,16.793916,99.916708,25.075022,6600.000000,9.777778,1498.750617,0.000000,0.000000,0.000000,0.000000,0.000000,-0.000000,0.000000,0.000000,0.000000,0.000000,0.000000,0.000000,0.000000,0.000000,0.000000,0.000000,0.000000,0.000000
2026-03-04 06:56:17,0.230000,1,1,0.148582,0.000000,0.000000,0.000000,0.000021,-0.000007,0.000000,-0.364259,-0.001933,-0.012400,16.769730,99.916708,150.101904,6600.000000,0.000000,0.000000,0.000000,0.000000,0.000000,0.000000,0.000000,0.000000,1.300000,1.300000,50.000000,49.851418,4985141.815676,0.000000,0.000000,4996541.815676,4996541.815676,0.000000,780.000000,0.000000,20000.000000,20000.000000,20000.000000,20000.000000,16.793337,99.909136,25.081814,6900.000000,10.222222,1498.637037,0.000000,0.000000,0.000000,0.000000,0.000000,-0.000000,0.000000,0.000000,0.000000,0.000000,0.000000,0.000000,0.000000,0.000000,0.000000,0.000000,0.000000,0.000000
2026-03-04 06:56:17,0.240000,1,1,0.000000,0.000000,0.000000,0.000000,-0.000001,-0.000009,0.000000,-0.132811,-0.125111,0.050924,16.810332,99.909136,150.235988,6900.000000,0.000000,0.000000,0.000000,0.000000,0.000000,0.000000,0.000000,0.000000,-1.300000,1.300000,50.000000,50.000000,5000000.000000,0.000000,0.000000,5011400.000000,5011400.000000,0.000000,-780.000000,0.000000,20000.000000,20000.000000,20000.000000,20000.000000,16.792731,99.901235,25.088897,7200.000000,10.666667,1498.518519,0.000000,0.000000,0.000000,0.000000,0.000000,-0.000000,0.000000,0.000000,0.000000,0.000000,0.000000,0.000000,0.000000,0.000000,0.000000,0.000000,0.000000,0.000000
2026-03-04 06:56:17,0.250000,1,1,0.000000,0.000000,0.000000,0.000000,-0.000002,0.000002,0.736235,-0.238726,-0.179917,-0.173380,16.808487,99.901235,150.205633,7200.000000,0.000000,0.000000,0.000000,0.000000,0.000000,0.000000,0.000000,0.000000,1.300000,1.300000,50.000000,50.000000,5000000.000000,0.000000,0.000000,5011400.000000,5011400.000000,0.000000,780.000000,0.000000,20000.000000,20000.000000,20000.000000,20000.000000,16.792099,99.893004,25.096271,7500.000000,11.111111,1498.395062,0.000000,0.000000,0.000000,0.000000,0.000000,-0.000000,0.000000,0.000000,0.000000,0.000000,0.000000,0.000000,0.000000,0.000000,0.000000,0.000000,0.000000,0.000000
2026-03-04 06:56:17,0.260000,1,1,0.000000,0.000000,0.000000,0.000000,0.000008,0.000014,0.528062,0.013942,-0.418437,-0.011707,16.823454,99.893004,149.917519,7500.000000,0.000000,0.000000,0.000000,0.000000,0.000000,0.000000,0.000000,0.000000,-1.300000,1.300000,50.000000,50.000000,5000000.000000,0.000000,0.000000,5011400.000000,5011400.000000,0.000000,-780.000000,0.000000,20000.000000,20000.000000,20000.000000,20000.000000,16.791440,99.884444,25.103936,7800.000000,11.555556,1498.266667,0.000000,0.000000,0.000000,0.000000,0.000000,-0.000000,0.000000,0.000000,0.000000,0.000000,0.000000,0.000000,0.000000,0.000000,0.000000,0.000000,0.000000,0.000000
2026-03-04 06:56:17,0.270000,1,1,0.000000,0.000000,0.000000,0.000000,-0.000001,-0.000022,0.000000,-0.330772,0.223706,-0.091948,16.847154,99.884444,149.623769,7800.000000,0.000000,0.000000,0.000000,0.000000,0.000000,0.000000,0.000000,0.000000,1.300000,-1.300000,50.000000,50.000000,5000000.000000,0.000000,0.000000,5011400.000000,5011400.000000,0.000000,780.000000,-780.000000,20000.000000,20000.000000,20000.000000,20000.000000,16.790756,99.875556,25.111892,8100.000000,12.000000,1498.133333,0.000000,0.000000,0.000000,0.000000,0.000000,-0.000000,0.000000,0.000000,0.000000,0.000000,0.000000,0.000000,0.000000,0.000000,0.000000,0.000000,0.000000,0.000000
2026-03-04 06:56:17,0.280000,1,1,0.000000,0.000000,0.000000,0.000000,-0.000006,0.000004,0.000000,0.163517,0.324964,0.428056,16.812938,99.875556,150.166222,8100.000000,0.000000,0.000000,0.000000,0.000000,0.000000,0.000000,0.000000,0.000000,-1.300000,-1.300000,50.000000,50.000000,5000000.000000,0.000000,0.000000,5011400.000000,5011400.000000,0.000000,-780.000000,0.000000,20000.000000,20000.000000,20000.000000,20000.000000,16.790044,99.866337,25.120138,8400.000000,12.444444,1497.995062,0.000000,0.000000,0.000000,0.000000,0.000000,-0.000000,0.000000,0.000000,0.000000,0.000000,0.000000,0.000000,0.000000,0.000000,0.000000,0.000000,0.000000,0.000000
2026-03-04 06:56:17,0.290000,1,1,0.000000,0.000000,0.000000,0.000000,-0.000014,-0.000019,3.443471,0.345079,-0.016821,-0.148913,16.765336,99.866337,149.831603,8400.000000,0.000000,0.000000,0.000000,0.000000,0.000000,0.000000,0.000000,0.000000,-1.300000,1.300000,50.000000,50.000000,5000000.000000,0.000000,0.000000,5011400.000000,5011400.000000,0.000000,0.000000,780.000000,20000.000000,20000.000000,20000.000000,20000.000000,16.789307,99.856790,25.128673,8700.000000,12.888889,1497.851852,0.000000,0.000000,0.000000,0.000000,0.000000,-0.000000,0.000000,0.000000,0.000000,0.000000,0.000000,0.000000,0.000000,0.000000,0.000000,0.000000,0.000000,0.000000
2026-03-04 06:56:17,0.300000,1,1,0.137957,0.000000,0.000000,0.000000,0.000005,0.000009,6.849748,-0.278933,-0.121036,-0.218718,16.822810,99.856790,150.137837,8700.000000,0.000000,0.000000,0.000000,0.000000,0.000000,0.000000,0.000000,0.000000,1.300000,1.300000,50.000000,49.862043,4986204.329211,0.000000,0.000000,4997604.329211,4997604.329211,0.000000,780.000000,0.000000,20000.000000,20000.000000,20000.000000,20000.000000,16.788543,99.846914,25.137499,9000.000000,13.333333,1497.703704,0.000000,0.000000,0.000000,0.000000,0.000000,-0.000000,0.000000,0.000000,0.000000,0.000000,0.000000,0.000000,0.000000,0.000000,0.000000,0.000000,0.000000,0.000000
2026-03-04 06:56:17,0.310000,1,1,0.011943,0.000000,0.000000,0.000000,0.000007,-0.000015,0.000000,-0.291047,-0.096969,0.050375,16.811210,99.846914,149.959653,9000.000000,0.000000,0.000000,0.000000,0.000000,0.000000,0.000000,0.000000,0.000000,1.300000,-1.300000,50.000000,49.988057,4998805.654552,0.000000,0.000000,5010205.654552,5010205.654552,0.000000,0.000000,-780.000000,20000.000000,20000.000000,20000.000000,20000.000000,16.787753,99.836708,25.146613,9300.000000,13.777778,1497.550617,0.000000,0.000000,0.000000,0.000000,0.000000,-0.000000,0.000000,0.000000,0.000000,0.000000,0.000000,0.000000,0.000000,0.000000,0.000000,0.000000,0.000000,0.000000
2026-03-04 06:56:17,0.320000,1,1,0.073985,0.000000,0.000000,0.000000,-0.000043,0.000024,0.000000,0.066913,0.514393,-0.028433,16.761635,99.836708,150.106689,9300.000000,0.000000,0.000000,0.000000,0.000000,0.000000,0.000000,0.000000,0.000000,-1.300000,-1.300000,50.000000,49.926015,4992601.524856,0.000000,0.000000,5004001.524856,5004001.524856,0.000000,-780.000000,0.000000,20000.000000,20000.000000,20000.000000,20000.000000,16.786937,99.826173,25.156016,9600.000000,14.222222,1497.392593,0.000000,0.000000,0.000000,0.000000,0.000000,-0.000000,0.000000,0.000000,0.000000,0.000000,0.000000,0.000000,0.000000,0.000000,0.000000,0.000000,0.000000,0.000000
2026-03-04 06:56:17,0.330000,1,1,0.000000,0.000000,0.000000,0.000000,0.000015,-0.000010,0.000000,0.416971,-0.022503,-0.050333,16.779949,99.826173,150.147366,9600.000000,0.000000,0.000000,0.000000,0.000000,0.000000,0.000000,0.000000,0.000000,-1.300000,1.300000,50.000000,50.000000,5000000.000000,0.000000,0.000000,5011400.000000,5011400.000000,0.000000,0.000000,780.000000,20000.000000,20000.000000,20000.000000,20000.000000,16.786094,99.815309,25.165708,9900.000000,14.666667,1497.229630,0.000000,0.000000,0.000000,0.000000,0.000000,-0.000000,0.000000,0.000000,0.000000,0.000000,0.000000,0.000000,0.000000,0.000000,0.000000,0.000000,0.000000,0.000000
2026-03-04 06:56:17,0.340000,1,1,0.075522,0.000000,0.000000,0.000000,-0.000003,0.000019,0.000000,0.107142,0.098273,0.502283,16.817330,99.815309,149.704417,9900.000000,0.000000,0.000000,0.000000,0.000000,0.000000,0.000000,0.000000,0.000000,1.300000,-1.300000,50.000000,49.924478,4992447.758798,0.000000,0.000000,5003847.758798,5003847.758798,0.000000,780.000000,-780.000000,20000.000000,20000.000000,20000.000000,20000.000000,16.785225,99.804115,25.175688,10200.000000,15.111111,1497.061728,0.000000,0.000000,0.000000,0.000000,0.000000,-0.000000,0.000000,0.000000,0.000000,0.000000,0.000000,0.000000,0.000000,0.000000,0.000000,0.000000,0.000000,0.000000
2026-03-04 06:56:17,0.350000,1,1,0.051217,0.000000,0.000000,0.000000,-0.000019,-0.000005,0.000000,-0.246250,-0.183800,-0.760024,16.712154,99.804115,149.717902,10200.000000,0.000000,0.000000,0.000000,0.000000,0.000000,0.000000,0.000000,0.000000,1.300000,1.300000,50.000000,49.948783,4994878.327966,0.000000,0.000000,5006278.327966,5006278.327966,0.000000,0.000000,780.000000,20000.000000,20000.000000,20000.000000,20000.000000,16.784329,99.792593,25.185956,10500.000000,15.555556,1496.888889,0.000000,0.000000,0.000000,0.000000,0.000000,-0.000000,0.000000,0.000000,0.000000,0.000000,0.000000,0.000000,0.000000,0.000000,0.000000,0.000000,0.000000,0.000000
2026-03-04 06:56:17,0.360000,1,1,0.000000,0.000000,0.000000,0.000000,-0.000028,0.000001,0.000000,-0.133105,0.211416,0.072447,16.821116,99.792593,150.359491,10500.000000,0.000000,0.000000,0.000000,0.000000,0.000000,0.000000,0.000000,0.000000,-1.300000,-1.300000,50.000000,50.000000,5000000.000000,0.000000,0.000000,5011400.000000,5011400.000000,0.000000,-780.000000,-780.000000,20000.000000,20000.000000,20000.000000,20000.000000,16.783407,99.780741,25.196512,10800.000000,16.000000,1496.711111,0.000000,0.000000,0.000000,0.000000,0.000000,-0.000000,0.000000,0.000000,0.000000,0.000000,0.000000,0.000000,0.000000,0.000000,0.000000,0.000000,0.000000,0.000000
2026-03-04 06:56:17,0.370000,1,1,0.000000,0.000000,0.000000,0.000000,-0.000007,0.000005,0.000000,0.129477,0.061484,0.187317,16.805020,99.780741,150.178436,10800.000000,0.000000,0.000000,0.000000,0.000000,0.000000,0.000000,0.000000,0.000000,-1.300000,1.300000,50.000000,50.000000,5000000.000000,0.000000,0.000000,5011400.000000,5011400.000000,0.000000,0.000000,780.000000,20000.000000,20000.000000,20000.000000,20000.000000,16.782459,99.768560,25.207354,11100.000000,16.444444,1496.528395,0.000000,0.000000,0.000000,0.000000,0.000000,-0.000000,0.000000,0.000000,0.000000,0.000000,0.000000,0.000000,0.000000,0.000000,0.000000,0.000000,0.000000,0.000000
2026-03-04 06:56:17,0.380000,1,1,0.000000,0.000000,0.000000,0.000000,0.000019,0.000006,0.000000,0.023750,0.268166,0.047899,16.766004,99.768560,149.779167,11100.000000,0.000000,0.000000,0.000000,0.000000,0.000000,0.000000,0.000000,0.000000,1.300000,-1.300000,50.000000,50.000000,5000000.000000,0.000000,0.000000,5011400.000000,5011400.000000,0.000000,780.000000,-780.000000,20000.000000,20000.000000,20000.000000,20000.000000,16.781485,99.756049,25.218484,11400.000000,16.888889,1496.340741,0.000000,0.000000,0.000000,0.000000,0.000000,-0.000000,0.000000,0.000000,0.000000,0.000000,0.000000,0.000000,0.000000,0.000000,0.000000,0.000000,0.000000,0.000000
2026-03-04 06:56:17,0.390000,1,1,0.000000,0.000000,0.000000,0.000000,-0.000011,-0.000000,0.000000,0.194921,-0.524425,0.593531,16.769951,99.756049,150.029137,11400.000000,0.000000,0.000000,0.000000,0.000000,0.000000,0.000000,0.000000,0.000000,-1.300000,1.300000,50.000000,50.000000,5000000.000000,0.000000,0.000000,5011400.000000,5011400.000000,0.000000,-780.000000,780.000000,20000.000000,20000.000000,20000.000000,20000.000000,16.780484,99.743210,25.229900,11700.000000,17.333333,1496.148148,0.000000,0.000000,0.000000,0.000000,0.000000,-0.000000,0.000000,0.000000,0.000000,0.000000,0.000000,0.000000,0.000000,0.000000,0.000000,0.000000,0.000000,0.000000
2026-03-04 06:56:17,0.400000,1,1,0.000000,0.000000,0.000000,0.000000,0.000015,0.000004,0.000000,-0.373852,0.074467,-0.181897,16.738750,99.743210,149.951318,11700.000000,0.000000,0.000000,0.000000,0.000000,0.000000,0.000000,0.000000,0.000000,1.300000,-1.300000,50.000000,50.000000,5000000.000000,0.000000,0.000000,5011400.000000,5011400.000000,0.000000,780.000000,-780.000000,20000.000000,20000.000000,20000.000000,20000.000000,16.779457,99.730041,25.241602,12000.000000,17.777778,1495.950617,0.000000,0.000000,0.000000,0.000000,0.000000,-0.000000,0.000000,0.000000,0.000000,0.000000,0.000000,0.000000,0.000000,0.000000,0.000000,0.000000,0.000000,0.000000
2026-03-04 06:56:17,0.410000,1,1,0.057115,0.000000,0.000000,0.000000,-0.000009,0.000018,2.641206,0.129240,-0.433985,-0.120028,16.766251,99.730041,150.144687,12000.000000,0.000000,0.000000,0.000000,0.000000,0.000000,0.000000,0.000000,0.000000,-1.300000,1.300000,50.000000,49.942885,4994288.507452,0.000000,0.000000,5005688.507452,5005688.507452,0.000000,-780.000000,780.000000,20000.000000,20000.000000,20000.000000,20000.000000,16.778403,99.716543,25.253590,12300.000000,18.222222,1495.748148,0.000000,0.000000,0.000000,0.000000,0.000000,-0.000000,0.000000,0.000000,0.000000,0.000000,0.000000,0.000000,0.000000,0.000000,0.000000,0.000000,0.000000,0.000000
2026-03-04 06:56:17,0.420000,1,1,0.000000,0.000000,0.000000,0.000000,0.000007,-0.000024,1.743194,-0.315871,-0.302206,-0.060727,16.810196,99.716543,150.092168,12300.000000,0.000000,0.000000,0.000000,0.000000,0.000000,0.000000,0.000000,0.000000,1.300000,-1.300000,50.000000,50.000000,5000000.000000,0.000000,0.000000,5011400.000000,5011400.000000,0.000000,780.000000,-780.000000,20000.000000,20000.000000,20000.000000,20000.000000,16.777323,99.702716,25.265863,12600.000000,18.666667,1495.540741,0.000000,0.000000,0.000000,0.000000,0.000000,-0.000000,0.000000,0.000000,0.000000,0.000000,0.000000,0.000000,0.000000,0.000000,0.000000,0.000000,0.000000,0.000000
2026-03-04 06:56:17,0.430000,1,1,0.000000,0.000000,0.000000,0.000000,0.000012,0.000013,4.562682,0.293219,0.123866,-0.235642,16.811741,99.702716,150.400665,12600.000000,0.000000,0.000000,0.000000,0.000000,0.000000,0.000000,0.000000,0.000000,-1.300000,-1.300000,50.000000,50.000000,5000000.000000,0.000000,0.000000,5011400.000000,5011400.000000,0.000000,-780.000000,0.000000,20000.000000,20000.000000,20000.000000,20000.000000,16.776217,99.688560,25.278422,12900.000000,19.111111,1495.328395,0.000000,0.000000,0.000000,0.000000,0.000000,-0.000000,0.000000,0.000000,0.000000,0.000000,0.000000,0.000000,0.000000,0.000000,0.000000,0.000000,0.000000,0.000000
2026-03-04 06:56:17,0.440000,1,1,0.122698,0.000000,0.000000,0.000000,-0.000014,0.000013,0.000000,-0.492852,0.306602,0.300652,16.770353,99.688560,150.109312,12900.000000,0.000000,0.000000,0.000000,0.000000,0.000000,0.000000,0.000000,0.000000,1.300000,-1.300000,50.000000,49.877302,4987730.226230,0.000000,0.000000,4999130.226230,4999130.226230,0.000000,780.000000,0.000000,20000.000000,20000.000000,20000.000000,20000.000000,16.775085,99.674074,25.291265,13200.000000,19.555556,1495.111111,0.000000,0.000000,0.000000,0.000000,0.000000,-0.000000,0.000000,0.000000,0.000000,0.000000,0.000000,0.000000,0.000000,0.000000,0.000000,0.000000,0.000000,0.000000
2026-03-04 06:56:17,0.450000,1,1,0.277608,0.000000,0.000000,0.000000,0.000005,-0.000001,0.000000,-0.031385,-0.284282,-0.718092,16.796274,99.674074,149.981624,13200.000000,0.000000,0.000000,0.000000,0.000000,0.000000,0.000000,0.000000,0.000000,-1.300000,1.300000,50.000000,49.722392,4972239.219113,0.000000,0.000000,4983639.219113,4983639.219113,0.000000,-780.000000,780.000000,20000.000000,20000.000000,20000.000000,20000.000000,16.773926,99.659259,25.304393,13500.000000,20.000000,1494.888889,0.000000,0.000000,0.000000,0.000000,0.000000,-0.000000,0.000000,0.000000,0.000000,0.000000,0.000000,0.000000,0.000000,0.000000,0.000000,0.000000,0.000000,0.000000
2026-03-04 06:56:17,0.460000,1,1,0.000000,0.000000,0.000000,0.000000,-0.000025,0.000011,0.000000,0.188571,-0.142022,0.329159,16.764710,99.659259,149.997362,13500.000000,0.000000,0.000000,0.000000,0.000000,0.000000,0.000000,0.000000,0.000000,-1.300000,-1.300000,50.000000,50.000000,5000000.000000,0.000000,0.000000,5011400.000000,5011400.000000,0.000000,0.000000,-780.000000,20000.000000,20000.000000,20000.000000,20000.000000,16.772741,99.644444,25.317507,13800.000000,20.000000,1494.666667,0.000000,0.000000,0.000000,0.000000,0.000000,-0.000000,0.000000,0.000000,0.000000,0.000000,0.000000,0.000000,0.000000,0.000000,0.000000,0.000000,0.000000,0.000000
2026-03-04 06:56:17,0.470000,1,1,0.000000,0.000000,0.000000,0.000000,-0.000007,0.000001,0.000000,-0.313209,0.127868,-0.296218,16.808596,99.644444,150.182193,13800.000000,0.000000,0.000000,0.000000,0.000000,0.000000,0.000000,0.000000,0.000000,1.300000,-1.300000,50.000000,50.000000,5000000.000000,0.000000,0.000000,5011400.000000,5011400.000000,0.000000,780.000000,0.000000,20000.000000,20000.000000,20000.000000,20000.000000,16.771556,99.629630,25.330607,14100.000000,20.000000,1494.444444,0.000000,0.000000,0.000000,0.000000,0.000000,-0.000000,0.000000,0.000000,0.000000,0.000000,0.000000,0.000000,0.000000,0.000000,0.000000,0.000000,0.000000,0.000000
2026-03-04 06:56:17,0.480000,1,1,0.019750,0.000000,0.000000,0.000000,0.000007,-0.000008,0.000000,-0.574731,-0.371117,0.081705,16.739880,99.629630,149.755929,14100.000000,0.000000,0.000000,0.000000,0.000000,0.000000,0.000000,0.000000,0.000000,1.300000,1.300000,50.000000,49.980250,4998025.003774,0.000000,0.000000,5009425.003774,5009425.003774,0.000000,0.000000,780.000000,20000.000000,20000.000000,20000.000000,20000.000000,16.770370,99.614815,25.343692,14400.000000,20.000000,1494.222222,0.000000,0.000000,0.000000,0.000000,0.000000,-0.000000,0.000000,0.000000,0.000000,0.000000,0.000000,0.000000,0.000000,0.000000,0.000000,0.000000,0.000000,0.000000
2026-03-04 06:56:17,0.490000,1,1,0.000000,0.000000,0.000000,0.000000,0.000023,0.000018,0.724084,-0.202121,-0.003202,0.461794,16.841999,99.614815,150.303343,14400.000000,0.000000,0.000000,0.000000,0.000000,0.000000,0.000000,0.000000,0.000000,-1.300000,-1.300000,50.000000,50.000000,5000000.000000,0.000000,0.000000,5011400.000000,5011400.000000,0.000000,-780.000000,-780.000000,20000.000000,20000.000000,20000.000000,20000.000000,16.769185,99.600000,25.356764,14700.000000,20.000000,1494.000000,0.000000,0.000000,0.000000,0.000000,0.000000,-0.000000,0.000000,0.000000,0.000000,0.000000,0.000000,0.000000,0.000000,0.000000,0.000000,0.000000,0.000000,0.000000
2026-03-04 06:56:17,0.500000,1,1,0.000000,0.000000,0.000000,0.000000,-0.000004,-0.000027,2.669004,0.357478,-0.248452,0.172958,16.743758,99.600000,149.981336,14700.000000,0.000000,0.000000,0.000000,0.000000,0.000000,0.000000,0.000000,0.000000,-1.300000,1.300000,50.000000,50.000000,5000000.000000,0.000000,0.000000,5011400.000000,5011400.000000,0.000000,0.000000,780.000000,20000.000000,20000.000000,20000.000000,20000.000000,16.768000,99.585185,25.369822,15000.000000,20.000000,1493.777778,0.000000,0.000000,0.000000,0.000000,0.000000,-0.000000,0.000000,0.000000,0.000000,0.000000,0.000000,0.000000,0.000000,0.000000,0.000000,0.000000,0.000000,0.000000
2026-03-04 06:56:17,0.510000,1,1,0.000000,0.000000,0.000000,0.000000,0.000002,0.000002,0.000000,-0.552060,0.266544,0.029412,16.740266,99.585185,149.972726,15000.000000,0.000000,0.000000,0.000000,0.000000,0.000000,0.000000,0.000000,0.000000,1.300000,-1.300000,50.000000,50.000000,5000000.000000,0.000000,0.000000,5011400.000000,5011400.000000,0.000000,780.000000,-780.000000,20000.000000,20000.000000,20000.000000,20000.000000,16.766815,99.570370,25.382865,15000.000000,20.000000,1493.555556,0.000000,0.000000,0.000000,0.000000,0.000000,-0.000000,0.000000,0.000000,0.000000,0.000000,0.000000,0.000000,0.000000,0.000000,0.000000,0.000000,0.000000,0.000000
2026-03-04 06:56:17,0.520000,1,1,0.000000,0.000000,0.000000,0.000000,-0.000017,0.000006,4.034315,-0.051300,0.138831,-0.139870,16.759786,99.570370,150.176799,15000.000000,0.000000,0.000000,0.000000,0.000000,0.000000,0.000000,0.000000,0.000000,-1.300000,1.300000,50.000000,50.000000,5000000.000000,0.000000,0.000000,5011400.000000,5011400.000000,0.000000,-780.000000,780.000000,20000.000000,20000.000000,20000.000000,20000.000000,16.765630,99.555556,25.395895,15000.000000,20.000000,1493.333333,0.000000,0.000000,0.000000,0.000000,0.000000,-0.000000,0.000000,0.000000,0.000000,0.000000,0.000000,0.000000,0.000000,0.000000,0.000000,0.000000,0.000000,0.000000
2026-03-04 06:56:17,0.530000,1,1,0.105456,0.000000,0.000000,0.000000,-0.000019,-0.000003,1.607295,0.050538,0.156678,0.163323,16.800165,99.555556,149.891684,15000.000000,0.000000,0.000000,0.000000,0.000000,0.000000,0.000000,0.000000,0.000000,-1.300000,-1.300000,50.000000,49.894544,4989454.359391,0.000000,0.000000,5000854.359391,5000854.359391,0.000000,0.000000,-780.000000,20000.000000,20000.000000,20000.000000,20000.000000,16.764444,99.540741,25.408911,15000.000000,20.000000,1493.111111,0.000000,0.000000,0.000000,0.000000,0.000000,-0.000000,0.000000,0.000000,0.000000,0.000000,0.000000,0.000000,0.000000,0.000000,0.000000,0.000000,0.000000,0.000000
2026-03-04 06:56:17,0.540000,1,1,0.150175,0.000000,0.000000,0.000000,-0.000009,0.000017,0.000000,-0.502144,0.031708,0.422300,16.733211,99.540741,150.174462,15000.000000,0.000000,0.000000,0.000000,0.000000,0.000000,0.000000,0.000000,0.000000,1.300000,1.300000,50.000000,49.849825,4984982.452918,0.000000,0.000000,4996382.452918,4996382.452918,0.000000,780.000000,780.000000,20000.000000,20000.000000,20000.000000,20000.000000,16.763259,99.525926,25.421912,15000.000000,20.000000,1492.888889,0.000000,0.000000,0.000000,0.000000,0.000000,-0.000000,0.000000,0.000000,0.000000,0.000000,0.000000,0.000000,0.000000,0.000000,0.000000,0.000000,0.000000,0.000000
2026-03-04 06:56:17,0.550000,1,1,0.201001,0.000000,0.000000,0.000000,-0.000015,0.000007,0.708248,0.235017,0.340654,-0.157553,16.729953,99.525926,149.981159,15000.000000,0.000000,0.000000,0.000000,0.000000,0.000000,0.000000,0.000000,0.000000,-1.300000,-1.300000,50.000000,49.798999,4979899.877026,0.000000,0.000000,4991299.877026,4991299.877026,0.000000,-780.000000,-780.000000,20000.000000,20000.000000,20000.000000,20000.000000,16.762074,99.511111,25.434900,15000.000000,20.000000,1492.666667,0.000000,0.000000,0.000000,0.000000,0.000000,-0.000000,0.000000,0.000000,0.000000,0.000000,0.000000,0.000000,0.000000,0.000000,0.000000,0.000000,0.000000,0.000000
2026-03-04 06:56:17,0.560000,1,1,0.000000,0.000000,0.000000,0.000000,0.000003,-0.000013,0.493551,-0.382097,-0.205875,-0.212216,16.785254,99.511111,149.874913,15000.000000,0.000000,0.000000,0.000000,0.000000,0.000000,0.000000,0.000000,0.000000,1.300000,1.300000,50.000000,50.000000,5000000.000000,0.000000,0.000000,5011400.000000,5011400.000000,0.000000,780.000000,780.000000,20000.000000,20000.000000,20000.000000,20000.000000,16.760889,99.496296,25.447874,15000.000000,20.000000,1492.444444,0.000000,0.000000,0.000000,0.000000,0.000000,-0.000000,0.000000,0.000000,0.000000,0.000000,0.000000,0.000000,0.000000,0.000000,0.000000,0.000000,0.000000,0.000000
2026-03-04 06:56:17,0.570000,1,1,0.000000,0.000000,0.000000,0.000000,-0.000016,-0.000030,1.539918,-0.028624,-0.104648,0.216388,16.753877,99.496296,149.957306,15000.000000,0.000000,0.000000,0.000000,0.000000,0.000000,0.000000,0.000000,0.000000,-1.300000,-1.300000,50.000000,50.000000,5000000.000000,0.000000,0.000000,5011400.000000,5011400.000000,0.000000,-780.000000,-780.000000,20000.000000,20000.000000,20000.000000,20000.000000,16.759704,99.481481,25.460834,15000.000000,20.000000,1492.222222,0.000000,0.000000,0.000000,0.000000,0.000000,-0.000000,0.000000,0.000000,0.000000,0.000000,0.000000,0.000000,0.000000,0.000000,0.000000,0.000000,0.000000,0.000000
2026-03-04 06:56:17,0.580000,1,1,0.270869,0.000000,0.000000,0.000000,0.000001,-0.000002,5.784762,0.117992,-0.309892,-0.230786,16.736746,99.481481,150.109837,15000.000000,0.000000,0.000000,0.000000,0.000000,0.000000,0.000000,0.000000,0.000000,-1.300000,1.300000,50.000000,49.729131,4972913.120502,0.000000,0.000000,4984313.120502,4984313.120502,0.000000,0.000000,780.000000,20000.000000,20000.000000,20000.000000,20000.000000,16.758519,99.466667,25.473780,15000.000000,20.000000,1492.000000,0.000000,0.000000,0.000000,0.000000,0.000000,-0.000000,0.000000,0.000000,0.000000,0.000000,0.000000,0.000000,0.000000,0.000000,0.000000,0.000000,0.000000,0.000000
2026-03-04 06:56:17,0.590000,1,1,0.000000,0.000000,0.000000,0.000000,-0.000004,-0.000010,0.000000,-0.001477,0.013136,0.473043,16.684186,99.466667,149.933256,15000.000000,0.000000,0.000000,0.000000,0.000000,0.000000,0.000000,0.000000,0.000000,1.300000,-1.300000,50.000000,50.000000,5000000.000000,0.000000,0.000000,5011400.000000,5011400.000000,0.000000,780.000000,-780.000000,20000.000000,20000.000000,20000.000000,20000.000000,16.757333,99.451852,25.486712,15000.000000,20.000000,1491.777778,0.000000,0.000000,0.000000,0.000000,0.000000,-0.000000,0.000000,0.000000,0.000000,0.000000,0.000000,0.000000,0.000000,0.000000,0.000000,0.000000,0.000000,0.000000
2026-03-04 06:56:17,0.600000,1,1,0.000000,0.000000,0.000000,0.000000,-0.000015,-0.000017,0.510295,0.415927,0.110661,-0.009784,16.742958,99.451852,149.685484,15000.000000,0.000000,0.000000,0.000000,0.000000,0.000000,0.000000,0.000000,0.000000,-1.300000,-1.300000,50.000000,50.000000,5000000.000000,0.000000,0.000000,5011400.000000,5011400.000000,0.000000,-780.000000,0.000000,20000.000000,20000.000000,20000.000000,20000.000000,16.756148,99.437037,25.499630,15000.000000,20.000000,1491.555556,0.000000,0.000000,0.000000,0.000000,0.000000,-0.000000,0.000000,0.000000,0.000000,0.000000,0.000000,0.000000,0.000000,0.000000,0.000000,0.000000,0.000000,0.000000
2026-03-04 06:56:17,0.610000,1,1,0.209927,0.000000,0.000000,0.000000,0.000005,-0.000015,0.000000,-0.077999,-0.309100,-0.010833,16.835355,99.437037,149.929385,15000.000000,0.000000,0.000000,0.000000,0.000000,0.000000,0.000000,0.000000,0.000000,1.300000,1.300000,50.000000,49.790073,4979007.328722,0.000000,0.000000,4990407.328722,4990407.328722,0.000000,780.000000,780.000000,20000.000000,20000.000000,20000.000000,20000.000000,16.754963,99.422222,25.512534,15000.000000,20.000000,1491.333333,0.000000,0.000000,0.000000,0.000000,0.000000,-0.000000,0.000000,0.000000,0.000000,0.000000,0.000000,0.000000,0.000000,0.000000,0.000000,0.000000,0.000000,0.000000
2026-03-04 06:56:17,0.620000,1,1,0.000000,0.000000,0.000000,0.000000,-0.000018,0.000002,2.540202,-0.551115,0.028871,-0.018286,16.761022,99.422222,150.148818,15000.000000,0.000000,0.000000,0.000000,0.000000,0.000000,0.000000,0.000000,0.000000,1.300000,-1.300000,50.000000,50.000000,5000000.000000,0.000000,0.000000,5011400.000000,5011400.000000,0.000000,0.000000,-780.000000,20000.000000,20000.000000,20000.000000,20000.000000,16.753778,99.407407,25.525425,15000.000000,20.000000,1491.111111,0.000000,0.000000,0.000000,0.000000,0.000000,-0.000000,0.000000,0.000000,0.000000,0.000000,0.000000,0.000000,0.000000,0.000000,0.000000,0.000000,0.000000,0.000000
2026-03-04 06:56:17,0.630000,1,1,0.000000,0.000000,0.000000,0.000000,0.000006,0.000005,0.402891,0.640050,0.027173,0.086352,16.799741,99.407407,150.020300,15000.000000,0.000000,0.000000,0.000000,0.000000,0.000000,0.000000,0.000000,0.000000,-1.300000,0.067956,50.000000,50.000000,5000000.000000,0.000000,0.000000,5011400.000000,5011400.000000,0.000000,-780.000000,410.386882,20000.000000,20000.000000,20000.000000,20000.000000,16.752593,99.392593,25.538302,15000.000000,20.000000,1490.888889,0.000000,0.000000,0.000000,0.000000,0.000000,-0.000000,0.000000,0.000000,0.000000,0.000000,0.000000,0.000000,0.000000,0.000000,0.000000,0.000000,0.000000,0.000000
2026-03-04 06:56:17,0.640000,1,1,0.000000,0.000000,0.000000,0.000000,-0.000001,-0.000006,0.000000,0.332131,0.020745,-0.011174,16.785691,99.392593,149.624240,15000.000000,0.000000,0.000000,0.000000,0.000000,0.000000,0.000000,0.000000,0.000000,1.300000,1.077972,50.000000,50.000000,5000000.000000,0.000000,0.000000,5011400.000000,5011400.000000,0.000000,780.000000,303.004656,20000.000000,20000.000000,20000.000000,20000.000000,16.751407,99.377778,25.551164,15000.000000,20.000000,1490.666667,0.000000,0.000000,0.000000,0.000000,0.000000,-0.000000,0.000000,0.000000,0.000000,0.000000,0.000000,0.000000,0.000000,0.000000,0.000000,0.000000,0.000000,0.000000
2026-03-04 06:56:17,0.650000,1,1,0.000000,0.000000,0.000000,0.000000,-0.000003,0.000002,3.233874,-0.252938,-0.244637,0.229017,16.697282,99.377778,150.104204,15000.000000,0.000000,0.000000,0.000000,0.000000,0.000000,0.000000,0.000000,0.000000,1.300000,1.300000,50.000000,50.000000,5000000.000000,0.000000,0.000000,5011400.000000,5011400.000000,0.000000,0.000000,66.608462,20000.000000,20000.000000,20000.000000,20000.000000,16.750222,99.362963,25.564013,15000.000000,20.000000,1490.444444,0.000000,0.000000,0.000000,0.000000,0.000000,-0.000000,0.000000,0.000000,0.000000,0.000000,0.000000,0.000000,0.000000,0.000000,0.000000,0.000000,0.000000,0.000000
2026-03-04 06:56:17,0.660000,1,1,0.192125,0.000000,0.000000,0.000000,-0.000013,-0.000003,5.877242,0.081237,-0.401004,0.067668,16.786637,99.362963,150.243203,15000.000000,0.000000,0.000000,0.000000,0.000000,0.000000,0.000000,0.000000,0.000000,-1.300000,1.300000,50.000000,49.807875,4980787.457817,0.000000,0.000000,4992187.457817,4992187.457817,0.000000,-780.000000,0.000000,20000.000000,20000.000000,20000.000000,20000.000000,16.749037,99.348148,25.576849,15000.000000,20.000000,1490.222222,0.000000,0.000000,0.000000,0.000000,0.000000,-0.000000,0.000000,0.000000,0.000000,0.000000,0.000000,0.000000,0.000000,0.000000,0.000000,0.000000,0.000000,0.000000
2026-03-04 06:56:17,0.670000,1,1,0.071865,0.000000,0.000000,0.000000,0.000006,-0.000011,1.605242,0.203365,-0.472002,0.049123,16.700883,99.348148,150.409952,15000.000000,0.000000,0.000000,0.000000,0.000000,0.000000,0.000000,0.000000,0.000000,-1.300000,1.300000,50.000000,49.928135,4992813.505381,0.000000,0.000000,5004213.505381,5004213.505381,0.000000,0.000000,0.000000,20000.000000,20000.000000,20000.000000,20000.000000,16.747852,99.333333,25.589670,15000.000000,20.000000,1490.000000,0.000000,0.000000,0.000000,0.000000,0.000000,-0.000000,0.000000,0.000000,0.000000,0.000000,0.000000,0.000000,0.000000,0.000000,0.000000,0.000000,0.000000,0.000000
2026-03-04 06:56:17,0.680000,1,1,0.000000,0.000000,0.000000,0.000000,0.000007,-0.000015,1.756778,-0.017507,0.079125,0.069191,16.751373,99.333333,150.185745,15000.000000,0.000000,0.000000,0.000000,0.000000,0.000000,0.000000,0.000000,0.000000,1.300000,-1.300000,50.000000,50.000000,5000000.000000,0.000000,0.000000,5011400.000000,5011400.000000,0.000000,780.000000,-780.000000,20000.000000,20000.000000,20000.000000,20000.000000,16.746667,99.318519,25.602478,15000.000000,20.000000,1489.777778,0.000000,0.000000,0.000000,0.000000,0.000000,-0.000000,0.000000,0.000000,0.000000,0.000000,0.000000,0.000000,0.000000,0.000000,0.000000,0.000000,0.000000,0.000000
2026-03-04 06:56:17,0.690000,1,1,0.063531,0.000000,0.000000,0.000000,0.000005,0.000022,0.000000,0.185242,0.475561,0.113285,16.738902,99.318519,150.061754,15000.000000,0.000000,0.000000,0.000000,0.000000,0.000000,0.000000,0.000000,0.000000,-1.300000,-1.300000,50.000000,49.936469,4993646.907827,0.000000,0.000000,5005046.907827,5005046.907827,0.000000,-780.000000,0.000000,20000.000000,20000.000000,20000.000000,20000.000000,16.745481,99.303704,25.615272,15000.000000,20.000000,1489.555556,0.000000,0.000000,0.000000,0.000000,0.000000,-0.000000,0.000000,0.000000,0.000000,0.000000,0.000000,0.000000,0.000000,0.000000,0.000000,0.000000,0.000000,0.000000
2026-03-04 06:56:17,0.700000,1,1,0.143988,0.000000,0.000000,0.000000,-0.000007,0.000013,0.000000,-0.695436,0.312819,0.146976,16.694500,99.303704,149.482148,15000.000000,0.000000,0.000000,0.000000,0.000000,0.000000,0.000000,0.000000,0.000000,1.300000,1.300000,50.000000,49.856012,4985601.228180,0.000000,0.000000,4997001.228180,4997001.228180,0.000000,780.000000,780.000000,20000.000000,20000.000000,20000.000000,20000.000000,16.744296,99.288889,25.628052,15000.000000,20.000000,1489.333333,0.000000,0.000000,0.000000,0.000000,0.000000,-0.000000,0.000000,0.000000,0.000000,0.000000,0.000000,0.000000,0.000000,0.000000,0.000000,0.000000,0.000000,0.000000
2026-03-04 06:56:17,0.710000,1,1,0.000000,0.000000,0.000000,0.000000,-0.000013,-0.000005,0.000000,-0.105986,-0.045318,-0.588276,16.741279,99.288889,150.074792,15000.000000,0.000000,0.000000,0.000000,0.000000,0.000000,0.000000,0.000000,0.000000,-1.300000,1.300000,50.000000,50.000000,5000000.000000,0.000000,0.000000,5011400.000000,5011400.000000,0.000000,-780.000000,0.000000,20000.000000,20000.000000,20000.000000,20000.000000,16.743111,99.274074,25.640818,15000.000000,20.000000,1489.111111,0.000000,0.000000,0.000000,0.000000,0.000000,-0.000000,0.000000,0.000000,0.000000,0.000000,0.000000,0.000000,0.000000,0.000000,0.000000,0.000000,0.000000,0.000000
2026-03-04 06:56:17,0.720000,1,1,0.000000,0.000000,0.000000,0.000000,0.000020,0.000008,0.000000,0.442596,0.013561,-0.139346,16.710449,99.274074,150.009215,15000.000000,0.000000,0.000000,0.000000,0.000000,0.000000,0.000000,0.000000,0.000000,-1.300000,-1.300000,50.000000,50.000000,5000000.000000,0.000000,0.000000,5011400.000000,5011400.000000,0.000000,0.000000,-780.000000,20000.000000,20000.000000,20000.000000,20000.000000,16.741926,99.259259,25.653571,15000.000000,20.000000,1488.888889,0.000000,0.000000,0.000000,0.000000,0.000000,-0.000000,0.000000,0.000000,0.000000,0.000000,0.000000,0.000000,0.000000,0.000000,0.000000,0.000000,0.000000,0.000000
2026-03-04 06:56:17,0.730000,1,1,0.000000,0.000000,0.000000,0.000000,0.000002,-0.000021,0.000000,0.388136,-0.023251,-0.266138,16.763685,99.259259,150.242906,15000.000000,0.000000,0.000000,0.000000,0.000000,0.000000,0.000000,0.000000,0.000000,1.300000,1.300000,50.000000,50.000000,5000000.000000,0.000000,0.000000,5011400.000000,5011400.000000,0.000000,780.000000,780.000000,20000.000000,20000.000000,20000.000000,20000.000000,16.740741,99.244444,25.666310,15000.000000,20.000000,1488.666667,0.000000,0.000000,0.000000,0.000000,0.000000,-0.000000,0.000000,0.000000,0.000000,0.000000,0.000000,0.000000,0.000000,0.000000,0.000000,0.000000,0.000000,0.000000
2026-03-04 06:56:17,0.740000,1,1,0.000000,0.000000,0.000000,0.000000,0.000018,-0.000018,0.000000,-0.372696,0.694951,-0.133905,16.767035,99.244444,150.070076,15000.000000,0.000000,0.000000,0.000000,0.000000,0.000000,0.000000,0.000000,0.000000,1.300000,-1.300000,50.000000,50.000000,5000000.000000,0.000000,0.000000,5011400.000000,5011400.000000,0.000000,0.000000,-780.000000,20000.000000,20000.000000,20000.000000,20000.000000,16.739556,99.229630,25.679035,15000.000000,20.000000,1488.444444,0.000000,0.000000,0.000000,0.000000,0.000000,-0.000000,0.000000,0.000000,0.000000,0.000000,0.000000,0.000000,0.000000,0.000000,0.000000,0.000000,0.000000,0.000000
2026-03-04 06:56:17,0.750000,1,1,0.251831,0.000000,0.000000,0.000000,0.000018,0.000022,0.622976,-0.135292,0.102713,-0.131343,16.719709,99.229630,150.295919,15000.000000,0.000000,0.000000,0.000000,0.000000,0.000000,0.000000,0.000000,0.000000,-1.300000,1.300000,50.000000,49.748169,4974816.855544,0.000000,0.000000,4986216.855544,4986216.855544,0.000000,-780.000000,780.000000,20000.000000,20000.000000,20000.000000,20000.000000,16.738370,99.214815,25.691747,15000.000000,20.000000,1488.222222,0.000000,0.000000,0.000000,0.000000,0.000000,-0.000000,0.000000,0.000000,0.000000,0.000000,0.000000,0.000000,0.000000,0.000000,0.000000,0.000000,0.000000,0.000000
2026-03-04 06:56:17,0.760000,1,1,0.087590,0.000000,0.000000,0.000000,0.000000,-0.000017,2.010107,-0.560397,0.054412,0.515323,16.755093,99.214815,150.264965,15000.000000,0.000000,0.000000,0.000000,0.000000,0.000000,0.000000,0.000000,0.000000,1.300000,1.300000,50.000000,49.912410,4991240.972574,0.000000,0.000000,5002640.972574,5002640.972574,0.000000,780.000000,0.000000,20000.000000,20000.000000,20000.000000,20000.000000,16.737185,99.200000,25.704445,15000.000000,20.000000,1488.000000,0.000000,0.000000,0.000000,0.000000,0.000000,-0.000000,0.000000,0.000000,0.000000,0.000000,0.000000,0.000000,0.000000,0.000000,0.000000,0.000000,0.000000,0.000000
2026-03-04 06:56:17,0.770000,1,1,0.233004,0.000000,0.000000,0.000000,0.000003,0.000004,3.761619,-0.710742,-0.084107,0.321036,16.729819,99.200000,150.140149,15000.000000,0.000000,0.000000,0.000000,0.000000,0.000000,0.000000,0.000000,0.000000,1.300000,1.300000,50.000000,49.766996,4976699.585215,0.000000,0.000000,4988099.585215,4988099.585215,0.000000,0.000000,0.000000,20000.000000,20000.000000,20000.000000,20000.000000,16.736000,99.185185,25.717129,15000.000000,20.000000,1487.777778,0.000000,0.000000,0.000000,0.000000,0.000000,-0.000000,0.000000,0.000000,0.000000,0.000000,0.000000,0.000000,0.000000,0.000000,0.000000,0.000000,0.000000,0.000000
2026-03-04 06:56:17,0.780000,1,1,0.004031,0.000000,0.000000,0.000000,-0.000029,-0.000020,0.000000,-0.361055,-0.451710,0.462707,16.696507,99.185185,149.635382,15000.000000,0.000000,0.000000,0.000000,0.000000,0.000000,0.000000,0.000000,0.000000,-1.300000,1.300000,50.000000,49.995969,4999596.903170,0.000000,0.000000,5010996.903170,5010996.903170,0.000000,-780.000000,0.000000,20000.000000,20000.000000,20000.000000,20000.000000,16.734815,99.170370,25.729800,15000.000000,20.000000,1487.555556,0.000000,0.000000,0.000000,0.000000,0.000000,-0.000000,0.000000,0.000000,0.000000,0.000000,0.000000,0.000000,0.000000,0.000000,0.000000,0.000000,0.000000,0.000000
2026-03-04 06:56:17,0.790000,1,1,0.043054,0.000000,0.000000,0.000000,-0.000010,-0.000007,1.738689,0.171197,-0.031187,0.066445,16.698099,99.170370,150.011115,15000.000000,0.000000,0.000000,0.000000,0.000000,0.000000,0.000000,0.000000,0.000000,-1.300000,-1.300000,50.000000,49.956946,4995694.618801,0.000000,0.000000,5007094.618801,5007094.618801,0.000000,0.000000,-780.000000,20000.000000,20000.000000,20000.000000,20000.000000,16.733630,99.155556,25.742457,15000.000000,20.000000,1487.333333,0.000000,0.000000,0.000000,0.000000,0.000000,-0.000000,0.000000,0.000000,0.000000,0.000000,0.000000,0.000000,0.000000,0.000000,0.000000,0.000000,0.000000,0.000000
2026-03-04 06:56:17,0.800000,1,1,0.000000,0.000000,0.000000,0.000000,-0.000011,-0.000012,0.667300,-0.311928,-0.181317,-0.112517,16.717631,99.155556,150.147826,15000.000000,0.000000,0.000000,0.000000,0.000000,0.000000,0.000000,0.000000,0.000000,1.300000,1.300000,50.000000,50.000000,5000000.000000,0.000000,0.000000,5011400.000000,5011400.000000,0.000000,780.000000,780.000000,20000.000000,20000.000000,20000.000000,20000.000000,16.732444,99.140741,25.755101,15000.000000,20.000000,1487.111111,0.000000,0.000000,0.000000,0.000000,0.000000,-0.000000,0.000000,0.000000,0.000000,0.000000,0.000000,0.000000,0.000000,0.000000,0.000000,0.000000,0.000000,0.000000
2026-03-04 06:56:17,0.810000,1,1,0.000000,0.000000,0.000000,0.000000,0.000010,-0.000019,0.000000,-0.070287,0.380706,0.523824,16.717494,99.140741,149.840179,15000.000000,0.000000,0.000000,0.000000,0.000000,0.000000,0.000000,0.000000,0.000000,-1.300000,-1.300000,50.000000,50.000000,5000000.000000,0.000000,0.000000,5011400.000000,5011400.000000,0.000000,-780.000000,-780.000000,20000.000000,20000.000000,20000.000000,20000.000000,16.731259,99.125926,25.767731,15000.000000,20.000000,1486.888889,0.000000,0.000000,0.000000,0.000000,0.000000,-0.000000,0.000000,0.000000,0.000000,0.000000,0.000000,0.000000,0.000000,0.000000,0.000000,0.000000,0.000000,0.000000
2026-03-04 06:56:17,0.820000,1,1,0.000000,0.000000,0.000000,0.000000,-0.000016,-0.000016,0.000000,-0.121543,-0.013237,-0.264903,16.650067,99.125926,150.113574,15000.000000,0.000000,0.000000,0.000000,0.000000,0.000000,0.000000,0.000000,0.000000,1.300000,1.300000,50.000000,50.000000,5000000.000000,0.000000,0.000000,5011400.000000,5011400.000000,0.000000,780.000000,780.000000,20000.000000,20000.000000,20000.000000,20000.000000,16.730074,99.111111,25.780347,15000.000000,20.000000,1486.666667,0.000000,0.000000,0.000000,0.000000,0.000000,-0.000000,0.000000,0.000000,0.000000,0.000000,0.000000,0.000000,0.000000,0.000000,0.000000,0.000000,0.000000,0.000000
2026-03-04 06:56:17,0.830000,1,1,0.000000,0.000000,0.000000,0.000000,0.000012,0.000025,0.000000,0.374093,-0.183950,-0.261773,16.724103,99.111111,150.139036,15000.000000,0.000000,0.000000,0.000000,0.000000,0.000000,0.000000,0.000000,0.000000,-1.300000,1.300000,50.000000,50.000000,5000000.000000,0.000000,0.000000,5011400.000000,5011400.000000,0.000000,-780.000000,0.000000,20000.000000,20000.000000,20000.000000,20000.000000,16.728889,99.096296,25.792950,15000.000000,20.000000,1486.444444,0.000000,0.000000,0.000000,0.000000,0.000000,-0.000000,0.000000,0.000000,0.000000,0.000000,0.000000,0.000000,0.000000,0.000000,0.000000,0.000000,0.000000,0.000000
2026-03-04 06:56:17,0.840000,1,1,0.000000,0.000000,0.000000,0.000000,-0.000014,0.000024,0.000000,0.585945,-1.133332,0.444941,16.787250,99.096296,149.892366,15000.000000,0.000000,0.000000,0.000000,0.000000,0.000000,0.000000,0.000000,0.000000,-1.300000,1.300000,50.000000,50.000000,5000000.000000,0.000000,0.000000,5011400.000000,5011400.000000,0.000000,0.000000,0.000000,20000.000000,20000.000000,20000.000000,20000.000000,16.727704,99.081481,25.805539,15000.000000,20.000000,1486.222222,0.000000,0.000000,0.000000,0.000000,0.000000,-0.000000,0.000000,0.000000,0.000000,0.000000,0.000000,0.000000,0.000000,0.000000,0.000000,0.000000,0.000000,0.000000
2026-03-04 06:56:17,0.850000,1,1,0.105507,0.000000,0.000000,0.000000,0.000011,-0.000033,0.000000,0.155001,-0.136104,-0.186499,16.722282,99.081481,149.979155,15000.000000,0.000000,0.000000,0.000000,0.000000,0.000000,0.000000,0.000000,0.000000,1.300000,-1.300000,50.000000,49.894493,4989449.320400,0.000000,0.000000,5000849.320400,5000849.320400,0.000000,780.000000,-780.000000,20000.000000,20000.000000,20000.000000,20000.000000,16.726519,99.066667,25.818115,15000.000000,20.000000,1486.000000,0.000000,0.000000,0.000000,0.000000,0.000000,-0.000000,0.000000,0.000000,0.000000,0.000000,0.000000,0.000000,0.000000,0.000000,0.000000,0.000000,0.000000,0.000000
2026-03-04 06:56:17,0.860000,1,1,0.085587,0.000000,0.000000,0.000000,0.000018,0.000006,0.000000,-0.152160,0.177455,-0.076444,16.736630,99.066667,149.973825,15000.000000,0.000000,0.000000,0.000000,0.000000,0.000000,0.000000,0.000000,0.000000,1.300000,-1.300000,50.000000,49.914413,4991441.275882,0.000000,0.000000,5002841.275882,5002841.275882,0.000000,0.000000,0.000000,20000.000000,20000.000000,20000.000000,20000.000000,16.725333,99.051852,25.830677,15000.000000,20.000000,1485.777778,0.000000,0.000000,0.000000,0.000000,0.000000,-0.000000,0.000000,0.000000,0.000000,0.000000,0.000000,0.000000,0.000000,0.000000,0.000000,0.000000,0.000000,0.000000
2026-03-04 06:56:17,0.870000,1,1,0.043767,0.000000,0.000000,0.000000,-0.000018,-0.000005,3.629550,0.120230,-0.270580,0.138805,16.727314,99.051852,150.075839,15000.000000,0.000000,0.000000,0.000000,0.000000,0.000000,0.000000,0.000000,0.000000,-1.300000,1.300000,50.000000,49.956233,4995623.349262,0.000000,0.000000,5007023.349262,5007023.349262,0.000000,-780.000000,780.000000,20000.000000,20000.000000,20000.000000,20000.000000,16.724148,99.037037,25.843225,15000.000000,20.000000,1485.555556,0.000000,0.000000,0.000000,0.000000,0.000000,-0.000000,0.000000,0.000000,0.000000,0.000000,0.000000,0.000000,0.000000,0.000000,0.000000,0.000000,0.000000,0.000000
2026-03-04 06:56:17,0.880000,1,1,0.000000,0.000000,0.000000,0.000000,0.000009,0.000015,4.505441,-0.152570,0.073047,0.305337,16.697346,99.037037,149.836100,15000.000000,0.000000,0.000000,0.000000,0.000000,0.000000,0.000000,0.000000,0.000000,1.300000,-1.300000,50.000000,50.000000,5000000.000000,0.000000,0.000000,5011400.000000,5011400.000000,0.000000,780.000000,-780.000000,20000.000000,20000.000000,20000.000000,20000.000000,16.722963,99.022222,25.855760,15000.000000,20.000000,1485.333333,0.000000,0.000000,0.000000,0.000000,0.000000,-0.000000,0.000000,0.000000,0.000000,0.000000,0.000000,0.000000,0.000000,0.000000,0.000000,0.000000,0.000000,0.000000
2026-03-04 06:56:17,0.890000,1,1,0.000000,0.000000,0.000000,0.000000,0.000000,0.000010,1.272658,-0.315174,-0.251003,0.069348,16.724768,99.022222,149.604084,15000.000000,0.000000,0.000000,0.000000,0.000000,0.000000,0.000000,0.000000,0.000000,1.300000,1.300000,50.000000,50.000000,5000000.000000,0.000000,0.000000,5011400.000000,5011400.000000,0.000000,0.000000,780.000000,20000.000000,20000.000000,20000.000000,20000.000000,16.721778,99.007407,25.868282,15000.000000,20.000000,1485.111111,0.000000,0.000000,0.000000,0.000000,0.000000,-0.000000,0.000000,0.000000,0.000000,0.000000,0.000000,0.000000,0.000000,0.000000,0.000000,0.000000,0.000000,0.000000
2026-03-04 06:56:17,0.900000,1,1,0.083971,0.000000,0.000000,0.000000,-0.000020,-0.000006,0.000000,-0.640652,0.454346,-0.595050,16.669933,99.007407,150.303920,15000.000000,0.000000,0.000000,0.000000,0.000000,0.000000,0.000000,0.000000,0.000000,1.300000,-1.300000,50.000000,49.916029,4991602.916357,0.000000,0.000000,5003002.916357,5003002.916357,0.000000,0.000000,-780.000000,20000.000000,20000.000000,20000.000000,20000.000000,16.720593,98.992593,25.880790,15000.000000,20.000000,1484.888889,0.000000,0.000000,0.000000,0.000000,0.000000,-0.000000,0.000000,0.000000,0.000000,0.000000,0.000000,0.000000,0.000000,0.000000,0.000000,0.000000,0.000000,0.000000
