local_timestamp,sim_elapsed_s,sim_is_running,ground_locked,sensed_altitude_m,sensed_position_enu_x_m,sensed_position_enu_y_m,sensed_position_enu_z_m,sensed_gps_latitude_deg,sensed_gps_longitude_deg,sensed_gps_altitude_m,sensed_gps_velocity_north_mps,sensed_gps_velocity_east_mps,sensed_gps_velocity_down_mps,sensed_battery_voltage_v,sensed_battery_soc_percent,sensed_motor_temperature_c,sensed_motor_rpm,altitude_m,position_enu_x_m,position_enu_y_m,position_enu_z_m,velocity_enu_x_mps,velocity_enu_y_mps,velocity_enu_z_mps,yaw_rad,pitch_rad,roll_rad,target_altitude_m,target_error_m,p_component_rpm,i_component_rpm,d_component_rpm,desired_rpm,common_motor_rpm,yaw_control_rpm,pitch_control_rpm,roll_control_rpm,desired_motor_rpm_0,desired_motor_rpm_1,desired_motor_rpm_2,desired_motor_rpm_3,battery_voltage_v,battery_soc_percent,motor_temperature_c,motor_rpm,motor_current_a,battery_capacity_mah,gps_latitude_deg,gps_longitude_deg,gps_altitude_m,gps_velocity_north_mps,gps_velocity_east_mps,gps_velocity_down_mps,weather_total_ax,weather_total_ay,weather_total_az,weather_steady_ax,weather_steady_ay,weather_steady_az,weather_gust_ax,weather_gust_ay,weather_gust_az,weather_turb_ax,weather_turb_ay,weather_turb_az
2026-03-09 00:05:20,0.010000,1,1,0.349879,0.000000,0.000000,0.000000,0.000007,0.000005,0.000000,0.104473,-0.008691,-0.387018,16.829444,100.000000,149.767734,0.000000,0.000000,0.000000,0.000000,0.000000,0.000000,0.000000,0.000000,0.000000,0.000000,0.000000,50.000000,49.650121,1489.503619,0.000000,0.000000,11689.503619,11689.503619,0.000000,0.000000,0.000000,11689.503619,11689.503619,11689.503619,11689.503619,16.800000,99.999671,25.000299,300.000000,0.444444,1499.995062,0.000000,0.000000,0.000000,0.000000,0.000000,-0.000000,9.975637,0.092926,-0.085857,10.000000,-0.050000,0.030000,0.003141,0.128710,-0.104853,-0.027505,0.014216,-0.011005
2026-03-09 00:05:20,0.020000,1,1,0.098787,0.000000,0.000000,0.000000,-0.000033,-0.000018,3.492154,0.960013,-0.249643,-0.023181,16.816312,99.999671,149.948551,300.000000,0.000000,0.000000,0.000000,0.000000,0.000000,0.000000,0.000000,0.000000,0.000000,0.000000,50.000000,49.901213,1497.036403,0.000000,0.000000,11697.036403,11697.036403,0.000000,0.000000,0.000000,11697.036403,11697.036403,11697.036403,11697.036403,16.799974,99.999012,25.000896,600.000000,0.888889,1499.985185,0.000000,0.000000,0.000000,0.000000,0.000000,-0.000000,10.002558,0.118537,-0.065448,10.000000,-0.050000,0.030000,0.006282,0.127484,-0.105756,-0.003724,0.041054,0.010309
2026-03-09 00:05:20,0.030000,1,1,0.005565,0.000000,0.000000,0.000000,0.000004,0.000013,0.000000,0.227604,-0.093538,0.116851,16.793841,99.999012,149.938672,600.000000,0.000000,0.000000,0.000000,0.000000,0.000000,0.000000,0.000000,0.000000,0.000000,0.000000,50.000000,49.994435,1499.833055,0.000000,0.000000,11699.833055,11699.833055,0.000000,0.000000,0.000000,11699.833055,11699.833055,11699.833055,11699.833055,16.799921,99.998025,25.001791,900.000000,1.333333,1499.970370,0.000000,0.000000,0.000000,0.000000,0.000000,-0.000000,10.011816,0.088004,-0.116853,10.000000,-0.050000,0.030000,0.009421,0.126227,-0.106634,0.002395,0.011777,-0.040219
2026-03-09 00:05:20,0.040000,1,1,0.000000,0.000000,0.000000,0.000000,0.000023,-0.000008,0.000000,0.482257,0.022011,0.569994,16.851553,99.998025,150.265243,900.000000,0.000000,0.000000,0.000000,0.000000,0.000000,0.000000,0.000000,0.000000,0.000000,0.000000,50.000000,50.000000,1500.000000,0.000000,0.000000,11700.000000,11700.000000,0.000000,0.000000,0.000000,11700.000000,11700.000000,11700.000000,11700.000000,16.799842,99.996708,25.002984,1200.000000,1.777778,1499.950617,0.000000,0.000000,0.000000,0.000000,0.000000,-0.000000,10.007773,0.047063,-0.087341,10.000000,-0.050000,0.030000,0.012558,0.124938,-0.107485,-0.004785,-0.027876,-0.009856
2026-03-09 00:05:20,0.050000,1,1,0.000000,0.000000,0.000000,0.000000,0.000000,0.000004,0.000000,0.054304,-0.196475,-0.027330,16.792046,99.996708,150.005250,1200.000000,0.000000,0.000000,0.000000,0.000000,0.000000,0.000000,0.000000,0.000000,0.000000,0.000000,50.000000,50.000000,1500.000000,0.000000,0.000000,11700.000000,11700.000000,0.000000,0.000000,0.000000,11700.000000,11700.000000,11700.000000,11700.000000,16.799737,99.995062,25.004474,1500.000000,2.222222,1499.925926,0.000000,0.000000,0.000000,0.000000,0.000000,-0.000000,10.022354,0.057664,-0.077866,10.000000,-0.050000,0.030000,0.015692,0.123619,-0.108310,0.006662,-0.015955,0.000444
2026-03-09 00:05:20,0.060000,1,1,0.000000,0.000000,0.000000,0.000000,-0.000006,-0.000005,1.182141,0.257890,0.262029,0.254923,16.764811,99.995062,149.875396,1500.000000,0.000000,0.000000,0.000000,0.000000,0.000000,0.000000,0.000000,0.000000,0.000000,0.000000,50.000000,50.000000,1500.000000,0.000000,0.000000,11700.000000,11700.000000,0.000000,0.000000,0.000000,11700.000000,11700.000000,11700.000000,11700.000000,16.799605,99.993086,25.006261,1800.000000,2.666667,1499.896296,0.000000,0.000000,0.000000,0.000000,0.000000,-0.000000,9.995782,0.068745,-0.087664,10.000000,-0.050000,0.030000,0.018822,0.122269,-0.109108,-0.023039,-0.003524,-0.008556
2026-03-09 00:05:20,0.070000,1,1,0.000000,0.000000,0.000000,0.000000,-0.000011,0.000007,0.181200,-0.035928,0.004332,-0.497040,16.860363,99.993086,149.863220,1800.000000,0.000000,0.000000,0.000000,0.000000,0.000000,0.000000,0.000000,0.000000,0.000000,0.000000,50.000000,50.000000,1500.000000,0.000000,0.000000,11700.000000,11700.000000,0.000000,0.000000,0.000000,11700.000000,11700.000000,11700.000000,11700.000000,16.799447,99.990782,25.008346,2100.000000,3.111111,1499.861728,0.000000,0.000000,0.000000,0.000000,0.000000,-0.000000,10.006193,0.104919,-0.077030,10.000000,-0.050000,0.030000,0.021947,0.120889,-0.109880,-0.015754,0.034030,0.002849
2026-03-09 00:05:20,0.080000,1,1,0.112284,0.000000,0.000000,0.000000,0.000021,-0.000001,0.000000,0.095588,-0.307030,-0.293410,16.742009,99.990782,149.674022,2100.000000,0.000000,0.000000,0.000000,0.000000,0.000000,0.000000,0.000000,0.000000,0.000000,0.000000,50.000000,49.887716,1496.631484,0.000000,0.000000,11696.631484,11696.631484,0.000000,0.000000,0.000000,11696.631484,11696.631484,11696.631484,11696.631484,16.799263,99.988148,25.010727,2400.000000,3.555556,1499.822222,0.000000,0.000000,0.000000,0.000000,0.000000,-0.000000,10.082450,0.066337,-0.081317,10.000000,-0.050000,0.030000,0.025067,0.119479,-0.110624,0.057383,-0.003142,-0.000693
2026-03-09 00:05:20,0.090000,1,1,0.018277,0.000000,0.000000,0.000000,0.000006,0.000026,0.000000,0.096044,0.341240,-0.106121,16.768205,99.988148,150.180741,2400.000000,0.000000,0.000000,0.000000,0.000000,0.000000,0.000000,0.000000,0.000000,0.000000,0.000000,50.000000,49.981723,1499.451686,0.000000,0.000000,11699.451686,11699.451686,0.000000,0.000000,0.000000,11699.451686,11699.451686,11699.451686,11699.451686,16.799052,99.985185,25.013404,2700.000000,4.000000,1499.777778,0.000000,0.000000,0.000000,0.000000,0.000000,-0.000000,10.062087,0.091416,-0.121875,10.000000,-0.050000,0.030000,0.028180,0.118040,-0.111340,0.033907,0.023376,-0.040534
2026-03-09 00:05:20,0.100000,1,1,0.138567,0.000000,0.000000,0.000000,-0.000004,-0.000003,0.000000,-0.570596,0.350765,-0.161855,16.769933,99.985185,150.164432,2700.000000,0.000000,0.000000,0.000000,0.000000,0.000000,0.000000,0.000000,0.000000,0.000000,0.000000,50.000000,49.861433,1495.842985,0.000000,0.000000,11695.842985,11695.842985,0.000000,0.000000,0.000000,11695.842985,11695.842985,11695.842985,11695.842985,16.798815,99.981893,25.016377,3000.000000,4.444444,1499.728395,0.000000,0.000000,0.000000,0.000000,0.000000,-0.000000,10.042480,0.033539,-0.059641,10.000000,-0.050000,0.030000,0.031287,0.116572,-0.112030,0.011194,-0.033033,0.022388
2026-03-09 00:05:20,0.110000,1,1,0.097686,0.000000,0.000000,0.000000,-0.000006,-0.000001,1.944273,-0.084781,-0.525489,-0.102539,16.796038,99.981893,149.819901,3000.000000,0.000000,0.000000,0.000000,0.000000,0.000000,0.000000,0.000000,0.000000,0.000000,0.000000,50.000000,49.902314,1497.069421,0.000000,0.000000,11697.069421,11697.069421,0.000000,0.000000,0.000000,11697.069421,11697.069421,11697.069421,11697.069421,16.798551,99.978272,25.019646,3300.000000,4.888889,1499.674074,0.000000,0.000000,0.000000,0.000000,0.000000,-0.000000,9.993048,0.082058,-0.090421,10.000000,-0.050000,0.030000,0.034386,0.115075,-0.112691,-0.041338,0.016983,-0.007729
2026-03-09 00:05:20,0.120000,1,1,0.000000,0.000000,0.000000,0.000000,-0.000001,-0.000017,0.000000,-0.056863,-0.167029,0.171041,16.820946,99.978272,149.746918,3300.000000,0.000000,0.000000,0.000000,0.000000,0.000000,0.000000,0.000000,0.000000,0.000000,0.000000,50.000000,50.000000,1500.000000,0.000000,0.000000,11700.000000,11700.000000,0.000000,0.000000,0.000000,11700.000000,11700.000000,11700.000000,11700.000000,16.798262,99.974321,25.023210,3600.000000,5.333333,1499.614815,0.000000,0.000000,0.000000,0.000000,0.000000,-0.000000,10.026883,0.042416,-0.106501,10.000000,-0.050000,0.030000,0.037476,0.113549,-0.113325,-0.010593,-0.021134,-0.023175
2026-03-09 00:05:20,0.130000,1,1,0.049580,0.000000,0.000000,0.000000,-0.000012,-0.000022,0.000000,0.100623,0.379140,-0.249012,16.776180,99.974321,150.057788,3600.000000,0.000000,0.000000,0.000000,0.000000,0.000000,0.000000,0.000000,0.000000,0.000000,0.000000,50.000000,49.950420,1498.512592,0.000000,0.000000,11698.512592,11698.512592,0.000000,0.000000,0.000000,11698.512592,11698.512592,11698.512592,11698.512592,16.797946,99.970041,25.027069,3900.000000,5.777778,1499.550617,0.000000,0.000000,0.000000,0.000000,0.000000,-0.000000,10.061509,0.056707,-0.093160,10.000000,-0.050000,0.030000,0.040557,0.111996,-0.113931,0.020952,-0.005289,-0.009229
2026-03-09 00:05:20,0.140000,1,1,0.195834,0.000000,0.000000,0.000000,-0.000030,0.000013,0.000000,0.443390,-0.041525,-0.029574,16.804261,99.970041,150.168535,3900.000000,0.000000,0.000000,0.000000,0.000000,0.000000,0.000000,0.000000,0.000000,0.000000,0.000000,50.000000,49.804166,1494.124984,0.000000,0.000000,11694.124984,11694.124984,0.000000,0.000000,0.000000,11694.124984,11694.124984,11694.124984,11694.124984,16.797603,99.965432,25.031222,4200.000000,6.222222,1499.481481,0.000000,0.000000,0.000000,0.000000,0.000000,-0.000000,10.038480,0.096441,-0.083176,10.000000,-0.050000,0.030000,0.043629,0.110415,-0.114509,-0.005149,0.036027,0.001333
2026-03-09 00:05:20,0.150000,1,1,0.000000,0.000000,0.000000,0.000000,-0.000018,0.000017,2.095252,-0.233212,-0.126857,-0.284498,16.809422,99.965432,149.865387,4200.000000,0.000000,0.000000,0.000000,0.000000,0.000000,0.000000,0.000000,0.000000,0.000000,0.000000,50.000000,50.000000,1500.000000,0.000000,0.000000,11700.000000,11700.000000,0.000000,0.000000,0.000000,11700.000000,11700.000000,11700.000000,11700.000000,16.797235,99.960494,25.035670,4500.000000,6.666667,1499.407407,0.000000,0.000000,0.000000,0.000000,0.000000,-0.000000,10.054594,0.082372,-0.103202,10.000000,-0.050000,0.030000,0.046689,0.108806,-0.115058,0.007905,0.023566,-0.018144
2026-03-09 00:05:20,0.160000,1,1,0.136420,0.000000,0.000000,0.000000,0.000009,-0.000007,0.283451,-0.326075,0.103043,0.906949,16.760478,99.960494,149.834217,4500.000000,0.000000,0.000000,0.000000,0.000000,0.000000,0.000000,0.000000,0.000000,0.000000,0.000000,50.000000,49.863580,1495.907394,0.000000,0.000000,11695.907394,11695.907394,0.000000,0.000000,0.000000,11695.907394,11695.907394,11695.907394,11695.907394,16.796840,99.955226,25.040412,4800.000000,7.111111,1499.328395,0.000000,0.000000,0.000000,0.000000,0.000000,-0.000000,10.098991,0.136851,-0.061807,10.000000,-0.050000,0.030000,0.049738,0.107171,-0.115580,0.049253,0.079680,0.023773
2026-03-09 00:05:20,0.170000,1,1,0.000000,0.000000,0.000000,0.000000,0.000014,-0.000013,0.061771,-0.268956,0.044510,-0.564060,16.729832,99.955226,149.809028,4800.000000,0.000000,0.000000,0.000000,0.000000,0.000000,0.000000,0.000000,0.000000,0.000000,0.000000,50.000000,50.000000,1500.000000,0.000000,0.000000,11700.000000,11700.000000,0.000000,0.000000,0.000000,11700.000000,11700.000000,11700.000000,11700.000000,16.796418,99.949630,25.045448,5100.000000,7.555556,1499.244444,0.000000,0.000000,0.000000,0.000000,0.000000,-0.000000,10.027472,0.010210,-0.076856,10.000000,-0.050000,0.030000,0.052775,0.105509,-0.116072,-0.025303,-0.045299,0.009216
2026-03-09 00:05:20,0.180000,1,1,0.061379,0.000000,0.000000,0.000000,-0.000018,-0.000010,1.810489,0.104953,0.471580,0.309389,16.782774,99.949630,149.832612,5100.000000,0.000000,0.000000,0.000000,0.000000,0.000000,0.000000,0.000000,0.000000,0.000000,0.000000,50.000000,49.938621,1498.158636,0.000000,0.000000,11698.158636,11698.158636,0.000000,0.000000,0.000000,11698.158636,11698.158636,11698.158636,11698.158636,16.795970,99.943704,25.050777,5400.000000,8.000000,1499.155556,0.000000,0.000000,0.000000,0.000000,0.000000,-0.000000,10.040398,0.075467,-0.084818,10.000000,-0.050000,0.030000,0.055798,0.103821,-0.116536,-0.015400,0.021645,0.001718
2026-03-09 00:05:20,0.190000,1,1,0.000000,0.000000,0.000000,0.000000,0.000011,-0.000004,0.210693,-0.033267,0.440683,0.296341,16.876297,99.943704,149.814241,5400.000000,0.000000,0.000000,0.000000,0.000000,0.000000,0.000000,0.000000,0.000000,0.000000,0.000000,50.000000,50.000000,1500.000000,0.000000,0.000000,11700.000000,11700.000000,0.000000,0.000000,0.000000,11700.000000,11700.000000,11700.000000,11700.000000,16.795496,99.937449,25.056400,5700.000000,8.444444,1499.061728,0.000000,0.000000,0.000000,0.000000,0.000000,-0.000000,10.086726,0.005216,-0.087842,10.000000,-0.050000,0.030000,0.058808,0.102108,-0.116971,0.027918,-0.046892,-0.000871
2026-03-09 00:05:20,0.200000,1,1,0.000000,0.000000,0.000000,0.000000,-0.000008,0.000006,0.695716,-0.292099,0.191322,-0.696450,16.774381,99.937449,149.949744,5700.000000,0.000000,0.000000,0.000000,0.000000,0.000000,0.000000,0.000000,0.000000,0.000000,0.000000,50.000000,50.000000,1500.000000,0.000000,0.000000,11700.000000,11700.000000,0.000000,0.000000,0.000000,11700.000000,11700.000000,11700.000000,11700.000000,16.794996,99.930864,25.062315,6000.000000,8.888889,1498.962963,0.000000,0.000000,0.000000,0.000000,0.000000,-0.000000,10.082136,0.026501,-0.092884,10.000000,-0.050000,0.030000,0.061803,0.100370,-0.117378,0.020333,-0.023869,-0.005506
2026-03-09 00:05:20,0.210000,1,1,0.000000,0.000000,0.000000,0.000000,-0.000012,0.000003,2.735652,-0.496333,0.014410,-0.072174,16.782495,99.930864,150.177374,6000.000000,0.000000,0.000000,0.000000,0.000000,0.000000,0.000000,0.000000,0.000000,0.000000,0.000000,50.000000,50.000000,1500.000000,0.000000,0.000000,11700.000000,11700.000000,0.000000,0.000000,0.000000,11700.000000,11700.000000,11700.000000,11700.000000,16.794469,99.923951,25.068523,6300.000000,9.333333,1498.859259,0.000000,0.000000,0.000000,0.000000,0.000000,-0.000000,10.059737,0.068475,-0.073786,10.000000,-0.050000,0.030000,0.064783,0.098606,-0.117755,-0.005046,0.019869,0.013969
2026-03-09 00:05:20,0.220000,1,1,0.000000,0.000000,0.000000,0.000000,-0.000008,0.000013,0.875784,-0.391072,-0.543633,-0.168385,16.801075,99.923951,150.152556,6300.000000,0.000000,0.000000,0.000000,0.000000,0.000000,0.000000,0.000000,0.000000,0.000000,0.000000,50.000000,50.000000,1500.000000,0.000000,0.000000,11700.000000,11700.000000,0.000000,0.000000,0.000000,11700.000000,11700.000000,11700.000000,11700.000000,16.793916,99.916708,25.075022,6600.000000,9.777778,1498.750617,0.000000,0.000000,0.000000,0.000000,0.000000,-0.000000,10.102691,0.054052,-0.084631,10.000000,-0.050000,0.030000,0.067748,0.096819,-0.118103,0.034943,0.007234,0.003472
2026-03-09 00:05:20,0.230000,1,1,0.013758,0.000000,0.000000,0.000000,0.000001,-0.000001,0.000000,-0.197059,0.168205,-0.048234,16.797271,99.916708,149.701630,6600.000000,0.000000,0.000000,0.000000,0.000000,0.000000,0.000000,0.000000,0.000000,0.000000,0.000000,50.000000,49.986242,1499.587259,0.000000,0.000000,11699.587259,11699.587259,0.000000,0.000000,0.000000,11699.587259,11699.587259,11699.587259,11699.587259,16.793337,99.909136,25.081814,6900.000000,10.222222,1498.637037,0.000000,0.000000,0.000000,0.000000,0.000000,-0.000000,10.023470,0.081372,-0.093338,10.000000,-0.050000,0.030000,0.070695,0.095007,-0.118423,-0.047225,0.036365,-0.004915
2026-03-09 00:05:20,0.240000,1,1,0.000000,0.000000,0.000000,0.000000,0.000010,-0.000003,0.000000,-0.604571,0.708554,-0.542268,16.773524,99.909136,149.966123,6900.000000,0.000000,0.000000,0.000000,0.000000,0.000000,0.000000,0.000000,0.000000,0.000000,0.000000,50.000000,50.000000,1500.000000,0.000000,0.000000,11700.000000,11700.000000,0.000000,0.000000,0.000000,11700.000000,11700.000000,11700.000000,11700.000000,16.792731,99.901235,25.088897,7200.000000,10.666667,1498.518519,0.000000,0.000000,0.000000,0.000000,0.000000,-0.000000,10.092763,0.080177,-0.104106,10.000000,-0.050000,0.030000,0.073625,0.093172,-0.118713,0.019139,0.037005,-0.015393
2026-03-09 00:05:20,0.250000,1,1,0.000000,0.000000,0.000000,0.000000,-0.000016,0.000018,0.000000,-0.316695,-0.002653,-0.649624,16.813299,99.901235,149.956355,7200.000000,0.000000,0.000000,0.000000,0.000000,0.000000,0.000000,0.000000,0.000000,0.000000,0.000000,50.000000,50.000000,1500.000000,0.000000,0.000000,11700.000000,11700.000000,0.000000,0.000000,0.000000,11700.000000,11700.000000,11700.000000,11700.000000,16.792099,99.893004,25.096271,7500.000000,11.111111,1498.395062,0.000000,0.000000,0.000000,0.000000,0.000000,-0.000000,10.058090,0.013301,-0.129862,10.000000,-0.050000,0.030000,0.076537,0.091314,-0.118973,-0.018446,-0.028013,-0.040888
2026-03-09 00:05:20,0.260000,1,1,0.134209,0.000000,0.000000,0.000000,0.000019,-0.000022,1.657607,-0.039045,-0.752948,0.129325,16.833069,99.893004,150.349112,7500.000000,0.000000,0.000000,0.000000,0.000000,0.000000,0.000000,0.000000,0.000000,0.000000,0.000000,50.000000,49.865791,1495.973722,0.000000,0.000000,11695.973722,11695.973722,0.000000,0.000000,0.000000,11695.973722,11695.973722,11695.973722,11695.973722,16.791440,99.884444,25.103936,7800.000000,11.555556,1498.266667,0.000000,0.000000,0.000000,0.000000,0.000000,-0.000000,10.089416,0.062960,-0.067815,10.000000,-0.050000,0.030000,0.079430,0.089434,-0.119205,0.009987,0.023526,0.021390
2026-03-09 00:05:20,0.270000,1,1,0.187947,0.000000,0.000000,0.000000,-0.000012,-0.000019,1.309759,-0.270172,0.474457,-0.160032,16.789803,99.884444,149.931693,7800.000000,0.000000,0.000000,0.000000,0.000000,0.000000,0.000000,0.000000,0.000000,0.000000,0.000000,50.000000,49.812053,1494.361603,0.000000,0.000000,11694.361603,11694.361603,0.000000,0.000000,0.000000,11694.361603,11694.361603,11694.361603,11694.361603,16.790756,99.875556,25.111892,8100.000000,12.000000,1498.133333,0.000000,0.000000,0.000000,0.000000,0.000000,-0.000000,10.136131,0.035737,-0.117021,10.000000,-0.050000,0.030000,0.082303,0.087531,-0.119407,0.053828,-0.001795,-0.027614
2026-03-09 00:05:20,0.280000,1,1,0.000000,0.000000,0.000000,0.000000,-0.000010,0.000004,1.831137,-0.059630,0.072380,-0.495002,16.821711,99.875556,150.502941,8100.000000,0.000000,0.000000,0.000000,0.000000,0.000000,0.000000,0.000000,0.000000,0.000000,0.000000,50.000000,50.000000,1500.000000,0.000000,0.000000,11700.000000,11700.000000,0.000000,0.000000,0.000000,11700.000000,11700.000000,11700.000000,11700.000000,16.790044,99.866337,25.120138,8400.000000,12.444444,1497.995062,0.000000,0.000000,0.000000,0.000000,0.000000,-0.000000,10.102577,0.064442,-0.095195,10.000000,-0.050000,0.030000,0.085156,0.085607,-0.119579,0.017421,0.028835,-0.005616
2026-03-09 00:05:20,0.290000,1,1,0.135100,0.000000,0.000000,0.000000,-0.000028,-0.000000,0.000000,-0.482038,0.376963,0.566757,16.786339,99.866337,149.787763,8400.000000,0.000000,0.000000,0.000000,0.000000,0.000000,0.000000,0.000000,0.000000,0.000000,0.000000,50.000000,49.864900,1495.947001,0.000000,0.000000,11695.947001,11695.947001,0.000000,0.000000,0.000000,11695.947001,11695.947001,11695.947001,11695.947001,16.789307,99.856790,25.128673,8700.000000,12.888889,1497.851852,0.000000,0.000000,0.000000,0.000000,0.000000,-0.000000,10.092060,-0.008896,-0.083769,10.000000,-0.050000,0.030000,0.087988,0.083662,-0.119722,0.004073,-0.042558,0.005953
2026-03-09 00:05:20,0.300000,1,1,0.170746,0.000000,0.000000,0.000000,-0.000027,-0.000030,0.000000,-0.057428,0.218288,-0.114282,16.821288,99.856790,150.374580,8700.000000,0.000000,0.000000,0.000000,0.000000,0.000000,0.000000,0.000000,0.000000,0.000000,0.000000,50.000000,49.829254,1494.877614,0.000000,0.000000,11694.877614,11694.877614,0.000000,0.000000,0.000000,11694.877614,11694.877614,11694.877614,11694.877614,16.788543,99.846914,25.137499,9000.000000,13.333333,1497.703704,0.000000,0.000000,0.000000,0.000000,0.000000,-0.000000,10.109041,0.037406,-0.110398,10.000000,-0.050000,0.030000,0.090798,0.081696,-0.119836,0.018243,0.005710,-0.020562
2026-03-09 00:05:20,0.310000,1,1,0.000000,0.000000,0.000000,0.000000,-0.000027,-0.000009,0.000000,0.262651,-0.127690,0.335725,16.782904,99.846914,149.671449,9000.000000,0.000000,0.000000,0.000000,0.000000,0.000000,0.000000,0.000000,0.000000,0.000000,0.000000,50.000000,50.000000,1500.000000,0.000000,0.000000,11700.000000,11700.000000,0.000000,0.000000,0.000000,11700.000000,11700.000000,11700.000000,11700.000000,16.787753,99.836708,25.146613,9300.000000,13.777778,1497.550617,0.000000,0.000000,0.000000,0.000000,0.000000,-0.000000,10.090428,-0.014299,-0.075820,10.000000,-0.050000,0.030000,0.093586,0.079710,-0.119919,-0.003158,-0.044009,0.014100
2026-03-09 00:05:20,0.320000,1,1,0.000000,0.000000,0.000000,0.000000,-0.000012,-0.000023,0.000000,-0.024819,0.345478,0.030781,16.780931,99.836708,150.061899,9300.000000,0.000000,0.000000,0.000000,0.000000,0.000000,0.000000,0.000000,0.000000,0.000000,0.000000,50.000000,50.000000,1500.000000,0.000000,0.000000,11700.000000,11700.000000,0.000000,0.000000,0.000000,11700.000000,11700.000000,11700.000000,11700.000000,16.786937,99.826173,25.156016,9600.000000,14.222222,1497.392593,0.000000,0.000000,0.000000,0.000000,0.000000,-0.000000,10.067690,0.054483,-0.082755,10.000000,-0.050000,0.030000,0.096351,0.077704,-0.119974,-0.028660,0.026779,0.007218
2026-03-09 00:05:20,0.330000,1,1,0.000000,0.000000,0.000000,0.000000,0.000018,0.000004,0.000000,0.123402,-0.148974,-0.054935,16.806183,99.826173,150.081456,9600.000000,0.000000,0.000000,0.000000,0.000000,0.000000,0.000000,0.000000,0.000000,0.000000,0.000000,50.000000,50.000000,1500.000000,0.000000,0.000000,11700.000000,11700.000000,0.000000,0.000000,0.000000,11700.000000,11700.000000,11700.000000,11700.000000,16.786094,99.815309,25.165708,9900.000000,14.666667,1497.229630,0.000000,0.000000,0.000000,0.000000,0.000000,-0.000000,10.089263,0.015357,-0.098294,10.000000,-0.050000,0.030000,0.099092,0.075679,-0.119998,-0.009829,-0.010322,-0.008295
2026-03-09 00:05:20,0.340000,1,1,0.000000,0.000000,0.000000,0.000000,0.000001,-0.000005,0.521689,0.142108,-0.123587,0.062278,16.763863,99.815309,149.805824,9900.000000,0.000000,0.000000,0.000000,0.000000,0.000000,0.000000,0.000000,0.000000,0.000000,0.000000,50.000000,50.000000,1500.000000,0.000000,0.000000,11700.000000,11700.000000,0.000000,0.000000,0.000000,11700.000000,11700.000000,11700.000000,11700.000000,16.785225,99.804115,25.175688,10200.000000,15.111111,1497.061728,0.000000,0.000000,0.000000,0.000000,0.000000,-0.000000,10.075960,0.046159,-0.117968,10.000000,-0.050000,0.030000,0.101808,0.073636,-0.119993,-0.025848,0.022524,-0.027975
2026-03-09 00:05:20,0.350000,1,0,0.000000,0.000000,0.000000,0.000000,-0.000012,0.000025,2.696157,0.058051,-0.310418,-0.196633,16.793687,99.804115,149.950463,10200.000000,0.000046,0.001011,-0.000002,0.000046,0.101083,-0.000189,0.004580,0.000000,0.000000,0.000000,50.000000,50.000000,1500.000000,0.000000,0.000000,11700.000000,11700.000000,0.000000,0.000000,0.000000,11700.000000,11700.000000,11700.000000,11700.000000,16.784329,99.792593,25.185956,10500.000000,15.555556,1496.888889,-0.000000,0.000000,0.000046,-0.000189,0.101083,-0.004580,10.108310,-0.018908,-0.095123,10.000000,-0.050000,0.030000,0.104500,0.071574,-0.119959,0.003810,-0.040482,-0.005164
2026-03-09 00:05:20,0.360000,1,0,0.053639,0.001011,-0.000002,0.000046,-0.000015,0.000017,1.500248,-0.310240,0.151478,-0.707963,16.765664,99.792593,149.935336,10500.000000,0.000199,0.003023,-0.000005,0.000199,0.201202,-0.000299,0.015284,0.000000,0.000000,0.000000,50.000000,49.946361,1498.390834,0.000000,0.000000,11698.390834,11698.390834,0.000000,0.000000,0.000000,11698.390834,11698.390834,11698.390834,11698.390834,16.783407,99.780741,25.196512,10800.000000,16.000000,1496.711111,-0.000000,0.000000,0.000199,-0.000299,0.201202,-0.015284,10.069682,-0.011078,-0.080676,10.000000,-0.050000,0.030000,0.107165,0.069494,-0.119895,-0.037483,-0.030572,0.009219
2026-03-09 00:05:20,0.370000,1,0,0.000000,0.003023,-0.000005,0.000199,0.000008,-0.000006,0.000000,-0.080532,0.210083,-0.049367,16.790517,99.780741,149.961514,10800.000000,0.000523,0.006033,-0.000009,0.000523,0.301006,-0.000395,0.032400,0.000000,0.000000,0.000000,50.000000,50.000000,1500.000000,0.000000,0.000000,11700.000000,11700.000000,0.000000,0.000000,0.000000,11700.000000,11700.000000,11700.000000,11700.000000,16.782459,99.768560,25.207354,11100.000000,16.444444,1496.528395,-0.000000,0.000000,0.000523,-0.000395,0.301006,-0.032400,10.095311,-0.009812,-0.050899,10.000000,-0.050000,0.030000,0.109805,0.067398,-0.119801,-0.014494,-0.027210,0.038902
2026-03-09 00:05:20,0.380000,1,0,0.000000,0.006033,-0.000009,0.000523,0.000001,-0.000016,0.000000,-0.175094,0.197009,0.100395,16.794814,99.768560,149.876510,11100.000000,0.001076,0.010035,-0.000014,0.001076,0.400239,-0.000485,0.055345,0.000000,0.000000,0.000000,50.000000,50.000000,1500.000000,0.000000,0.000000,11700.000000,11700.000000,0.000000,0.000000,0.000000,11700.000000,11700.000000,11700.000000,11700.000000,16.781485,99.756049,25.218484,11400.000000,16.888889,1496.340741,-0.000000,0.000000,0.001076,-0.000485,0.400239,-0.055345,10.095322,-0.009236,-0.092744,10.000000,-0.050000,0.030000,0.112417,0.065285,-0.119678,-0.017095,-0.024521,-0.003067
2026-03-09 00:05:20,0.390000,1,0,0.000000,0.010035,-0.000014,0.001076,0.000015,0.000021,0.000000,-0.165645,-0.032393,-0.211572,16.693746,99.756049,150.502404,11400.000000,0.001919,0.015029,-0.000017,0.001919,0.499347,-0.000356,0.084287,0.000000,0.000000,0.000000,50.000000,50.000000,1500.000000,0.000000,0.000000,11700.000000,11700.000000,0.000000,0.000000,0.000000,11700.000000,11700.000000,11700.000000,11700.000000,16.780484,99.743210,25.229900,11700.000000,17.333333,1496.148148,-0.000000,0.000000,0.001919,-0.000356,0.499347,-0.084287,10.139537,0.012691,-0.131357,10.000000,-0.050000,0.030000,0.115001,0.063155,-0.119525,0.024536,-0.000464,-0.041832
2026-03-09 00:05:20,0.400000,1,0,0.226124,0.015029,-0.000017,0.001919,-0.000016,0.000004,2.813617,-0.029963,0.501549,-0.325965,16.815408,99.743210,150.160033,11700.000000,0.003055,0.021002,-0.000020,0.003055,0.597353,-0.000252,0.113587,0.000000,0.000000,0.000000,50.000000,49.773876,1493.216288,0.000000,0.000000,11693.216288,11693.216288,0.000000,0.000000,0.000000,11693.216288,11693.216288,11693.216288,11693.216288,16.779457,99.730378,25.241297,11693.216288,17.323283,1495.955667,-0.000000,0.000000,0.003055,-0.000252,0.597353,-0.113587,10.085919,0.010189,-0.064068,10.000000,-0.050000,0.030000,0.117557,0.061010,-0.119343,-0.031638,-0.000821,0.025275
2026-03-09 00:05:20,0.410000,1,0,0.121843,0.021002,-0.000020,0.003055,-0.000006,0.000004,0.000000,0.225523,0.232137,0.359870,16.765575,99.730378,149.973140,11693.216288,0.004479,0.027953,-0.000022,0.004479,0.695116,-0.000181,0.142386,0.000000,0.000000,0.000000,50.000000,49.878157,1496.344724,0.000000,0.000000,11696.344724,11696.344724,0.000000,0.000000,0.000000,11696.344724,11696.344724,11696.344724,11696.344724,16.778430,99.717542,25.252685,11696.344724,17.327918,1495.763135,-0.000000,0.000000,0.004479,-0.000181,0.695116,-0.142386,10.117681,0.006919,-0.104297,10.000000,-0.050000,0.030000,0.120084,0.058851,-0.119131,-0.002403,-0.001931,-0.015167
2026-03-09 00:05:20,0.420000,1,0,0.006867,0.027953,-0.000022,0.004479,0.000026,0.000000,4.810755,0.057572,0.388437,-0.505085,16.810170,99.717542,149.613489,11696.344724,0.006192,0.035876,-0.000022,0.006192,0.792298,-0.000010,0.171342,0.000000,0.000000,0.000000,50.000000,49.993133,1499.793982,0.000000,0.000000,11699.793982,11699.793982,0.000000,0.000000,0.000000,11699.793982,11699.793982,11699.793982,11699.793982,16.777403,99.704703,25.264064,11699.793982,17.333028,1495.570546,-0.000000,0.000000,0.006192,-0.000010,0.792298,-0.171342,10.115340,0.017023,-0.079741,10.000000,-0.050000,0.030000,0.122581,0.056676,-0.118890,-0.007241,0.010347,0.009148
2026-03-09 00:05:20,0.430000,1,0,0.000000,0.035876,-0.000022,0.006192,-0.000026,0.000008,3.272552,-0.455669,0.677246,-0.047469,16.802306,99.704703,149.927148,11699.793982,0.008195,0.044773,-0.000029,0.008195,0.889668,-0.000714,0.200335,0.000000,0.000000,0.000000,50.000000,50.000000,1500.000000,0.000000,0.000000,11700.000000,11700.000000,0.000000,0.000000,0.000000,11700.000000,11700.000000,11700.000000,11700.000000,16.776376,99.691864,25.275432,11700.000000,17.333333,1495.377953,-0.000000,0.000000,0.008195,-0.000714,0.889668,-0.200335,10.189810,-0.070475,-0.059949,10.000000,-0.050000,0.030000,0.125049,0.054488,-0.118619,0.064762,-0.074963,0.028670
2026-03-09 00:05:20,0.440000,1,0,0.104085,0.044773,-0.000029,0.008195,-0.000019,0.000004,0.000000,-0.223242,1.016370,-0.140350,16.758720,99.691864,149.923479,11700.000000,0.010486,0.054635,-0.000031,0.010486,0.986229,-0.000243,0.229023,0.000000,0.000000,0.000000,50.000000,49.895915,1496.877451,0.000000,0.000000,11696.877451,11696.877451,0.000000,0.000000,0.000000,11696.877451,11696.877451,11696.877451,11696.877451,16.775349,99.679027,25.286784,11696.877451,17.328707,1495.185412,-0.000000,0.000000,0.010486,-0.000243,0.986229,-0.229023,10.164438,0.046696,-0.067004,10.000000,-0.050000,0.030000,0.127485,0.052286,-0.118320,0.036953,0.044410,0.021316
2026-03-09 00:05:20,0.450000,1,0,0.168265,0.054635,-0.000031,0.010486,-0.000008,-0.000016,0.631699,0.559445,1.040119,0.211311,16.765723,99.679027,150.327313,11696.877451,0.013058,0.065455,-0.000031,0.013058,1.081999,-0.000023,0.257251,0.000000,0.000000,0.000000,50.000000,49.831735,1494.952048,0.000000,0.000000,11694.952048,11694.952048,0.000000,0.000000,0.000000,11694.952048,11694.952048,11694.952048,11694.952048,16.774322,99.666193,25.298123,11694.952048,17.325855,1494.992902,-0.000000,0.000001,0.013058,-0.000023,1.081999,-0.257251,10.140574,0.021906,-0.092277,10.000000,-0.050000,0.030000,0.129890,0.050071,-0.117991,0.010685,0.021835,-0.004286
2026-03-09 00:05:20,0.460000,1,0,0.008946,0.065455,-0.000031,0.013058,0.000004,-0.000028,0.000000,0.164204,1.142291,-0.156826,16.750699,99.666193,150.134637,11694.952048,0.015912,0.077227,-0.000034,0.015912,1.177132,-0.000230,0.285333,0.000000,0.000000,0.000000,50.000000,49.991054,1499.731620,0.000000,0.000000,11699.731620,11699.731620,0.000000,0.000000,0.000000,11699.731620,11699.731620,11699.731620,11699.731620,16.773295,99.653354,25.309454,11699.731620,17.332936,1494.800314,-0.000000,0.000001,0.015912,-0.000230,1.177132,-0.285333,10.131606,-0.020728,-0.101416,10.000000,-0.050000,0.030000,0.132262,0.047844,-0.117633,-0.000656,-0.018572,-0.013784
2026-03-09 00:05:20,0.470000,1,0,0.000000,0.077227,-0.000034,0.015912,-0.000010,-0.000010,0.000000,0.214097,1.598855,-0.210983,16.786702,99.653354,149.764584,11699.731620,0.019048,0.089950,-0.000038,0.019048,1.272332,-0.000406,0.313645,0.000000,0.000000,0.000000,50.000000,50.000000,1500.000000,0.000000,0.000000,11700.000000,11700.000000,0.000000,0.000000,0.000000,11700.000000,11700.000000,11700.000000,11700.000000,16.772268,99.640515,25.320773,11700.000000,17.333333,1494.607722,-0.000000,0.000001,0.019048,-0.000406,1.272332,-0.313645,10.192618,-0.017679,-0.062884,10.000000,-0.050000,0.030000,0.134603,0.045605,-0.117245,0.058015,-0.013284,0.024361
2026-03-09 00:05:20,0.480000,1,0,0.000000,0.089950,-0.000038,0.019048,-0.000019,-0.000002,0.000000,-0.243839,1.069573,-0.563862,16.760116,99.640515,149.565308,11700.000000,0.022463,0.103615,-0.000041,0.022463,1.366455,-0.000356,0.341478,0.000000,0.000000,0.000000,50.000000,50.000000,1500.000000,0.000000,0.000000,11700.000000,11700.000000,0.000000,0.000000,0.000000,11700.000000,11700.000000,11700.000000,11700.000000,16.771241,99.627675,25.332080,11700.000000,17.333333,1494.415129,-0.000000,0.000001,0.022463,-0.000356,1.366455,-0.341478,10.139339,0.004702,-0.094619,10.000000,-0.050000,0.030000,0.136909,0.043355,-0.116829,0.002429,0.011347,-0.007789
2026-03-09 00:05:20,0.490000,1,0,0.204774,0.103615,-0.000041,0.022463,0.000014,0.000006,0.400589,-0.528569,1.284694,-0.479417,16.793851,99.627675,149.940620,11700.000000,0.026153,0.118213,-0.000044,0.026153,1.459878,-0.000228,0.369016,0.000000,0.000000,0.000000,50.000000,49.795226,1493.856779,0.000000,0.000000,11693.856779,11693.856779,0.000000,0.000000,0.000000,11693.856779,11693.856779,11693.856779,11693.856779,16.770214,99.614842,25.343370,11693.856779,17.324232,1494.222637,-0.000000,0.000001,0.026153,-0.000228,1.459878,-0.369016,10.123098,0.012638,-0.094714,10.000000,-0.050000,0.030000,0.139183,0.041094,-0.116385,-0.016085,0.021544,-0.008329
2026-03-09 00:05:20,0.500000,1,0,0.000000,0.118213,-0.000044,0.026153,-0.000013,0.000005,0.000000,0.887049,1.352509,-0.104713,16.736825,99.614842,149.707260,11693.856779,0.030121,0.133746,-0.000050,0.030121,1.553279,-0.000624,0.396791,0.000000,0.000000,0.000000,50.000000,50.000000,1500.000000,0.000000,0.000000,11700.000000,11700.000000,0.000000,0.000000,0.000000,11700.000000,11700.000000,11700.000000,11700.000000,16.769187,99.602003,25.354653,11700.000000,17.333333,1494.030045,-0.000000,0.000001,0.030121,-0.000624,1.553279,-0.396791,10.174317,-0.039721,-0.068761,10.000000,-0.050000,0.030000,0.141421,0.038823,-0.115911,0.032896,-0.028544,0.017150
2026-03-09 00:05:20,0.510000,1,0,0.000000,0.133746,-0.000050,0.030121,0.000016,-0.000005,4.877891,0.055445,2.087206,-0.410303,16.763700,99.602003,150.076646,11700.000000,0.034364,0.150202,-0.000056,0.034364,1.645588,-0.000610,0.424327,0.000000,0.000000,0.000000,50.000000,50.000000,1500.000000,0.000000,0.000000,11700.000000,11700.000000,0.000000,0.000000,0.000000,11700.000000,11700.000000,11700.000000,11700.000000,16.768160,99.589163,25.365924,11700.000000,17.333333,1493.837452,-0.000000,0.000001,0.034364,-0.000610,1.645588,-0.424327,10.118498,0.001002,-0.076849,10.000000,-0.050000,0.030000,0.143625,0.036542,-0.115409,-0.025127,0.014459,0.008560
2026-03-09 00:05:20,0.520000,1,0,0.057643,0.150202,-0.000056,0.034364,-0.000004,0.000014,0.000000,-0.454332,1.333181,-0.739148,16.775914,99.589163,149.878376,11700.000000,0.038875,0.167580,-0.000061,0.038875,1.737845,-0.000486,0.451093,0.000000,0.000000,0.000000,50.000000,49.942357,1498.270723,0.000000,0.000000,11698.270723,11698.270723,0.000000,0.000000,0.000000,11698.270723,11698.270723,11698.270723,11698.270723,16.767133,99.576326,25.377182,11698.270723,17.330771,1493.644888,-0.000000,0.000002,0.038875,-0.000486,1.737845,-0.451093,10.166109,0.012046,-0.134272,10.000000,-0.050000,0.030000,0.145794,0.034253,-0.114878,0.020316,0.027794,-0.049394
2026-03-09 00:05:20,0.530000,1,0,0.157134,0.167580,-0.000061,0.038875,0.000001,0.000009,0.318155,0.023593,1.411167,0.109864,16.745107,99.576326,149.907084,11698.270723,0.043660,0.185874,-0.000069,0.043660,1.829398,-0.000852,0.478514,0.000000,0.000000,0.000000,50.000000,49.842866,1495.285965,0.000000,0.000000,11695.285965,11695.285965,0.000000,0.000000,0.000000,11695.285965,11695.285965,11695.285965,11695.285965,16.766106,99.563492,25.388424,11695.285965,17.326350,1493.452373,-0.000000,0.000002,0.043660,-0.000852,1.829398,-0.478514,10.148317,-0.036814,-0.046873,10.000000,-0.050000,0.030000,0.147926,0.031955,-0.114319,0.000391,-0.018768,0.037446
2026-03-09 00:05:20,0.540000,1,0,0.022078,0.185874,-0.000069,0.043660,-0.000004,0.000010,0.000000,0.064369,1.881859,-0.643937,16.744077,99.563492,149.829405,11695.285965,0.048716,0.205080,-0.000081,0.048716,1.920558,-0.001207,0.505578,0.000000,0.000000,0.000000,50.000000,49.977922,1499.337674,0.000000,0.000000,11699.337674,11699.337674,0.000000,0.000000,0.000000,11699.337674,11699.337674,11699.337674,11699.337674,16.765079,99.550653,25.399659,11699.337674,17.332352,1493.259791,-0.000000,0.000002,0.048716,-0.001207,1.920558,-0.505578,10.161355,-0.036025,-0.075805,10.000000,-0.050000,0.030000,0.150022,0.029649,-0.113732,0.011333,-0.015674,0.007927
2026-03-09 00:05:20,0.550000,1,0,0.000000,0.205080,-0.000081,0.048716,0.000005,-0.000002,0.000000,0.404720,1.884975,-0.528829,16.783494,99.550653,149.956271,11699.337674,0.054040,0.225194,-0.000096,0.054040,2.011393,-0.001471,0.532442,0.000000,0.000000,0.000000,50.000000,50.000000,1500.000000,0.000000,0.000000,11700.000000,11700.000000,0.000000,0.000000,0.000000,11700.000000,11700.000000,11700.000000,11700.000000,16.764052,99.537813,25.410882,11700.000000,17.333333,1493.067199,-0.000000,0.000002,0.054040,-0.001471,2.011393,-0.532442,10.181026,-0.027073,-0.081860,10.000000,-0.050000,0.030000,0.152081,0.027335,-0.113117,0.028944,-0.004408,0.001256
2026-03-09 00:05:20,0.560000,1,0,0.227238,0.225194,-0.000096,0.054040,-0.000012,0.000017,0.000000,-0.251191,2.125346,-0.617121,16.737340,99.537813,150.034143,11700.000000,0.059631,0.246205,-0.000113,0.059631,2.101121,-0.001658,0.559097,0.000000,0.000000,0.000000,50.000000,49.772762,1493.182857,0.000000,0.000000,11693.182857,11693.182857,0.000000,0.000000,0.000000,11693.182857,11693.182857,11693.182857,11693.182857,16.763025,99.524981,25.422087,11693.182857,17.323234,1492.874719,-0.000000,0.000002,0.059631,-0.001658,2.101121,-0.559097,10.122158,-0.019566,-0.072442,10.000000,-0.050000,0.030000,0.154103,0.025015,-0.112474,-0.031945,0.005419,0.010032
2026-03-09 00:05:20,0.570000,1,0,0.000000,0.246205,-0.000113,0.059631,-0.000008,-0.000019,0.000000,0.186660,2.275977,-0.947542,16.788255,99.524981,150.176778,11693.182857,0.065488,0.268114,-0.000129,0.065488,2.190872,-0.001646,0.585677,0.000000,0.000000,0.000000,50.000000,50.000000,1500.000000,0.000000,0.000000,11700.000000,11700.000000,0.000000,0.000000,0.000000,11700.000000,11700.000000,11700.000000,11700.000000,16.761998,99.512142,25.433287,11700.000000,17.333333,1492.682126,-0.000000,0.000002,0.065488,-0.001646,2.190872,-0.585677,10.175678,0.000309,-0.079629,10.000000,-0.050000,0.030000,0.156086,0.022689,-0.111803,0.019591,0.027620,0.002174
2026-03-09 00:05:20,0.580000,1,0,0.031188,0.268114,-0.000129,0.065488,-0.000007,0.000023,0.913622,0.349493,2.370179,-0.685041,16.781771,99.512142,149.758185,11700.000000,0.071609,0.290917,-0.000149,0.071609,2.280264,-0.002001,0.612091,0.000000,0.000000,0.000000,50.000000,49.968812,1499.064350,0.000000,0.000000,11699.064350,11699.064350,0.000000,0.000000,0.000000,11699.064350,11699.064350,11699.064350,11699.064350,16.760971,99.499303,25.444473,11699.064350,17.331947,1492.489549,-0.000000,0.000003,0.071609,-0.002001,2.280264,-0.612091,10.191112,-0.036444,-0.078989,10.000000,-0.050000,0.030000,0.158031,0.020357,-0.111104,0.033081,-0.006802,0.002115
2026-03-09 00:05:20,0.590000,1,0,0.000000,0.290917,-0.000149,0.071609,0.000005,-0.000016,0.000000,0.255386,2.007786,-0.488088,16.716610,99.499303,149.841521,11699.064350,0.077989,0.314596,-0.000175,0.077989,2.367969,-0.002605,0.637991,0.000000,0.000000,0.000000,50.000000,50.000000,1500.000000,0.000000,0.000000,11700.000000,11700.000000,0.000000,0.000000,0.000000,11700.000000,11700.000000,11700.000000,11700.000000,16.759944,99.486464,25.455649,11700.000000,17.333333,1492.296956,-0.000000,0.000003,0.077989,-0.002605,2.367969,-0.637991,10.073553,-0.061541,-0.117375,10.000000,-0.050000,0.030000,0.159937,0.018021,-0.110379,-0.086384,-0.029561,-0.036996
2026-03-09 00:05:20,0.600000,1,0,0.090398,0.314596,-0.000175,0.077989,-0.000020,-0.000010,2.389547,0.092370,2.792355,-1.125668,16.782266,99.486464,149.986512,11700.000000,0.084632,0.339154,-0.000208,0.084632,2.455815,-0.003261,0.664295,0.000000,0.000000,0.000000,50.000000,49.909602,1497.288056,0.000000,0.000000,11697.288056,11697.288056,0.000000,0.000000,0.000000,11697.288056,11697.288056,11697.288056,11697.288056,16.758917,99.473627,25.466810,11697.288056,17.329316,1492.104408,-0.000000,0.000003,0.084632,-0.003261,2.455815,-0.664295,10.137708,-0.067139,-0.056253,10.000000,-0.050000,0.030000,0.161803,0.015679,-0.109625,-0.024095,-0.032818,0.023373
2026-03-09 00:05:20,0.610000,1,0,0.075139,0.339154,-0.000208,0.084632,-0.000001,0.000017,2.015667,-1.018276,2.603091,-0.782841,16.761412,99.473627,150.008334,11697.288056,0.091534,0.364591,-0.000245,0.091534,2.543678,-0.003748,0.690232,0.000000,0.000000,0.000000,50.000000,49.924861,1497.745818,0.000000,0.000000,11697.745818,11697.745818,0.000000,0.000000,0.000000,11697.745818,11697.745818,11697.745818,11697.745818,16.757890,99.460790,25.477960,11697.745818,17.329994,1491.911853,-0.000000,0.000003,0.091534,-0.003748,2.543678,-0.690232,10.189647,-0.050542,-0.078942,10.000000,-0.050000,0.030000,0.163630,0.013334,-0.108845,0.026017,-0.013876,-0.000097
2026-03-09 00:05:20,0.620000,1,0,0.000000,0.364591,-0.000245,0.091534,-0.000006,-0.000006,4.230964,-0.038895,2.309192,-0.519593,16.793215,99.460790,149.770500,11697.745818,0.098694,0.390902,-0.000290,0.098694,2.631085,-0.004450,0.716002,0.000000,0.000000,0.000000,50.000000,50.000000,1500.000000,0.000000,0.000000,11700.000000,11700.000000,0.000000,0.000000,0.000000,11700.000000,11700.000000,11700.000000,11700.000000,16.756863,99.447951,25.489100,11700.000000,17.333333,1491.719260,-0.000000,0.000004,0.098694,-0.004450,2.631085,-0.716002,10.194169,-0.072389,-0.085705,10.000000,-0.050000,0.030000,0.165416,0.010986,-0.108038,0.028752,-0.033375,-0.007666
2026-03-09 00:05:20,0.630000,1,0,0.219047,0.390902,-0.000290,0.098694,0.000031,0.000006,0.493514,-0.203925,2.712874,-1.374616,16.821547,99.447951,149.763812,11700.000000,0.106111,0.418081,-0.000331,0.106111,2.717883,-0.004157,0.741649,0.000000,0.000000,0.000000,50.000000,49.780953,1493.428600,0.000000,0.000000,11693.428600,11693.428600,0.000000,0.000000,0.000000,11693.428600,11693.428600,11693.428600,11693.428600,16.755836,99.435118,25.500222,11693.428600,17.323598,1491.526776,-0.000000,0.000004,0.106111,-0.004157,2.717883,-0.741649,10.183350,0.026835,-0.068842,10.000000,-0.050000,0.030000,0.167161,0.008635,-0.107205,0.016188,0.068200,0.008362
2026-03-09 00:05:20,0.640000,1,0,0.000000,0.418081,-0.000331,0.106111,-0.000012,0.000027,3.922957,-0.010241,2.227109,-0.929772,16.779119,99.435118,149.900405,11693.428600,0.113779,0.446117,-0.000377,0.113779,2.803592,-0.004526,0.766842,0.000000,0.000000,0.000000,50.000000,50.000000,1500.000000,0.000000,0.000000,11700.000000,11700.000000,0.000000,0.000000,0.000000,11700.000000,11700.000000,11700.000000,11700.000000,16.754809,99.422279,25.511338,11700.000000,17.333333,1491.334183,-0.000000,0.000004,0.113779,-0.004526,2.803592,-0.766842,10.123917,-0.039309,-0.114075,10.000000,-0.050000,0.030000,0.168866,0.006281,-0.106344,-0.044949,0.004409,-0.037731
2026-03-09 00:05:20,0.650000,1,0,0.167883,0.446117,-0.000377,0.113779,0.000005,0.000023,2.219565,-0.069410,2.932350,-1.310423,16.704452,99.422279,150.042393,11700.000000,0.121701,0.475013,-0.000427,0.121701,2.889666,-0.005003,0.792163,0.000000,0.000000,0.000000,50.000000,49.832117,1494.963506,0.000000,0.000000,11694.963506,11694.963506,0.000000,0.000000,0.000000,11694.963506,11694.963506,11694.963506,11694.963506,16.753782,99.409445,25.522438,11694.963506,17.325872,1491.141673,-0.000000,0.000004,0.121701,-0.005003,2.889666,-0.792163,10.209538,-0.050300,-0.075687,10.000000,-0.050000,0.030000,0.170528,0.003927,-0.105458,0.039010,-0.004227,-0.000229
2026-03-09 00:05:20,0.660000,1,0,0.360075,0.475013,-0.000427,0.121701,0.000017,-0.000012,0.000000,-0.306135,2.720431,-1.189213,16.738229,99.409445,149.927478,11694.963506,0.129874,0.504758,-0.000479,0.129874,2.974473,-0.005197,0.817308,0.000000,0.000000,0.000000,50.000000,49.639925,1489.197737,0.000000,0.000000,11689.197737,11689.197737,0.000000,0.000000,0.000000,11689.197737,11689.197737,11689.197737,11689.197737,16.752756,99.396617,25.533520,11689.197737,17.317330,1490.949259,-0.000000,0.000005,0.129874,-0.005197,2.974473,-0.817308,10.131843,-0.022264,-0.066279,10.000000,-0.050000,0.030000,0.172148,0.001571,-0.104546,-0.040306,0.026165,0.008267
2026-03-09 00:05:20,0.670000,1,0,0.000000,0.504758,-0.000479,0.129874,-0.000014,0.000025,0.120183,0.051605,2.973606,-0.655470,16.707039,99.396617,149.747992,11689.197737,0.138298,0.535303,-0.000535,0.138298,3.054469,-0.005672,0.842385,1.569848,0.000000,-0.040381,50.000000,50.000000,1500.000000,0.000000,0.000000,11700.000000,11700.000000,8163.209634,0.000000,-252.379187,19502.174524,3897.825476,20000.000000,3400.000000,16.751729,99.383790,25.544888,11989.197737,17.761774,1490.756844,-0.000000,0.000005,0.138298,-0.005672,3.054469,-0.842385,10.218122,-0.050926,-0.056605,10.000000,-0.050000,0.030000,0.173726,-0.000785,-0.103607,0.044395,-0.000141,0.017002
2026-03-09 00:05:20,0.680000,1,0,0.368767,0.535303,-0.000535,0.138298,-0.000001,-0.000004,2.285858,0.478994,3.111846,-1.144835,16.759232,99.383790,150.607937,11989.197737,0.146969,0.566637,-0.000602,0.146969,3.133388,-0.006636,0.867140,1.569796,0.000000,-0.042824,50.000000,49.631233,1488.936991,0.000000,0.000000,11698.473451,11698.473451,-7849.509608,0.000000,227.011657,4075.975500,19320.971403,3621.952186,19774.994716,16.750703,99.370962,25.555946,11689.197737,17.317330,1490.564429,-0.000000,0.000005,0.146969,-0.006636,3.133388,-0.867140,10.187165,-0.100266,-0.064757,10.000000,-0.050000,0.030000,0.175261,-0.003141,-0.102644,0.011903,-0.047124,0.007887
2026-03-09 00:05:20,0.690000,1,0,0.443686,0.566637,-0.000602,0.146969,0.000018,0.000011,0.000000,0.112772,2.848048,-1.305988,16.729721,99.370962,150.319576,11689.197737,0.155884,0.598751,-0.000672,0.155884,3.211384,-0.007049,0.891494,1.569734,0.000000,-0.045331,50.000000,49.556314,1486.689407,0.000000,0.000000,11697.413806,11697.413806,-0.062221,0.000000,-1.005496,11696.346090,11698.481522,11698.357081,11696.470531,16.749677,99.358125,25.567000,11696.346090,17.327920,1490.371879,-0.000000,0.000005,0.155884,-0.007049,3.211384,-0.891494,10.172925,-0.045680,-0.107320,10.000000,-0.050000,0.030000,0.176753,-0.005497,-0.101655,-0.003828,0.009817,-0.035665
2026-03-09 00:05:20,0.700000,1,0,0.250453,0.598751,-0.000672,0.155884,-0.000026,-0.000011,3.902917,0.611993,3.119684,-0.826792,16.774636,99.358125,150.083204,11696.346090,0.165046,0.631638,-0.000747,0.165046,3.288752,-0.007428,0.916168,1.569674,0.000000,-0.047900,50.000000,49.749547,1492.486408,0.000000,0.000000,11704.510125,11704.510125,-0.006949,0.000000,-1.016661,11703.486514,11705.533735,11705.519837,11703.500412,16.748650,99.345281,25.578049,11703.486514,17.338499,1490.179212,-0.000000,0.000006,0.165046,-0.007428,3.288752,-0.916168,10.188449,-0.042653,-0.075503,10.000000,-0.050000,0.030000,0.178201,-0.007850,-0.100640,0.010248,0.015197,-0.004863
2026-03-09 00:05:20,0.710000,1,0,0.513830,0.631638,-0.000747,0.165046,-0.000006,0.000003,0.000000,0.283570,3.131356,-0.859157,16.790460,99.345281,149.804842,11703.486514,0.174456,0.665290,-0.000829,0.174456,3.365224,-0.008265,0.941024,1.569614,0.000000,-0.050531,50.000000,49.486170,1484.585086,0.000000,0.000000,11698.002569,11698.002569,-0.003711,0.000000,-1.029121,11696.969738,11699.035400,11699.027979,11696.977159,16.747622,99.332444,25.589079,11696.969738,17.328844,1489.986653,-0.000000,0.000006,0.174456,-0.008265,3.365224,-0.941024,10.176269,-0.088688,-0.027224,10.000000,-0.050000,0.030000,0.179606,-0.010202,-0.099601,-0.003336,-0.028486,0.042378
2026-03-09 00:05:20,0.720000,1,0,0.002789,0.665290,-0.000829,0.174456,0.000003,-0.000028,1.593713,-0.040681,3.789223,-0.867910,16.749755,99.332444,149.943002,11696.969738,0.184116,0.699694,-0.000919,0.184116,3.440417,-0.009014,0.965987,1.569550,0.000000,-0.053223,50.000000,49.997211,1499.916324,0.000000,0.000000,11714.869457,11714.869457,-0.039405,0.000000,-1.040122,11713.789931,11715.948984,11715.870175,11713.868740,16.746595,99.319588,25.600115,11713.789931,17.353763,1489.793815,-0.000000,0.000006,0.184116,-0.009014,3.440417,-0.965987,10.128493,-0.080459,-0.037607,10.000000,-0.050000,0.030000,0.180965,-0.012552,-0.098538,-0.052472,-0.017907,0.030931
2026-03-09 00:05:20,0.730000,1,0,0.321161,0.699694,-0.000919,0.184116,-0.000018,-0.000007,1.873627,0.237803,3.757431,-0.948403,16.776370,99.319588,149.925358,11713.789931,0.194016,0.734846,-0.001019,0.194016,3.515117,-0.009946,0.990046,1.569482,0.000000,-0.055976,50.000000,49.678839,1490.365158,0.000000,0.000000,11706.942466,11706.942466,-0.028977,0.000000,-1.049015,11705.864474,11708.020458,11707.962505,11705.922428,16.745567,99.306741,25.611131,11705.864474,17.342021,1489.601108,-0.000000,0.000007,0.194016,-0.009946,3.515117,-0.990046,10.156623,-0.099330,-0.094278,10.000000,-0.050000,0.030000,0.182281,-0.014898,-0.097450,-0.025657,-0.034432,-0.026828
2026-03-09 00:05:20,0.740000,1,0,0.216663,0.734846,-0.001019,0.194016,-0.000002,-0.000008,0.000000,0.548362,3.621555,-1.208472,16.775187,99.306741,150.034577,11705.864474,0.204156,0.770735,-0.001120,0.204156,3.588982,-0.010135,1.014011,1.569410,0.000000,-0.058788,50.000000,49.783337,1493.500100,0.000000,0.000000,11711.843485,11711.843485,-0.039292,0.000000,-1.061590,11710.742603,11712.944367,11712.865783,11710.821187,16.744539,99.293888,25.622140,11710.742603,17.349248,1489.408321,-0.000000,0.000007,0.204156,-0.010135,3.588982,-1.014011,10.152739,-0.025552,-0.098772,10.000000,-0.050000,0.030000,0.183551,-0.017241,-0.096338,-0.030812,0.041688,-0.032434
2026-03-09 00:05:20,0.750000,1,0,0.389329,0.770735,-0.001120,0.204156,-0.000001,-0.000003,4.637451,-0.267790,3.214967,-1.311994,16.731563,99.293888,150.214374,11710.742603,0.214539,0.807354,-0.001226,0.214539,3.661841,-0.010635,1.038255,1.569343,0.000000,-0.061659,50.000000,49.610671,1488.320141,0.000000,0.000000,11708.546652,11708.546652,0.014463,0.000000,-1.072357,11707.488758,11709.604546,11709.633471,11707.459832,16.743511,99.281039,25.633134,11707.488758,17.344428,1489.215587,-0.000000,0.000007,0.214539,-0.010635,3.661841,-1.038255,10.130719,-0.057020,-0.047546,10.000000,-0.050000,0.030000,0.184776,-0.019579,-0.095202,-0.054057,0.012559,0.017657
2026-03-09 00:05:20,0.760000,1,0,0.488258,0.807354,-0.001226,0.214539,-0.000015,-0.000000,0.846718,0.589601,3.962040,-1.044337,16.769221,99.281039,150.034254,11707.488758,0.225160,0.844700,-0.001341,0.225160,3.734600,-0.011499,1.062062,1.569277,0.000000,-0.064588,50.000000,49.511742,1485.352254,0.000000,0.000000,11707.600300,11707.600300,-0.007560,0.000000,-1.082096,11706.510644,11708.689955,11708.674835,11706.525764,16.742483,99.268191,25.644116,11706.510644,17.342979,1489.022870,-0.000000,0.000008,0.225160,-0.011499,3.734600,-1.062062,10.199987,-0.093758,-0.073029,10.000000,-0.050000,0.030000,0.185955,-0.021912,-0.094043,0.014032,-0.021845,-0.008986
2026-03-09 00:05:20,0.770000,1,0,0.130342,0.844700,-0.001341,0.225160,0.000022,0.000012,0.000000,0.342382,3.877664,-1.417734,16.722491,99.268191,150.065775,11706.510644,0.236017,0.882762,-0.001465,0.236017,3.806245,-0.012382,1.085783,1.569208,0.000000,-0.067576,50.000000,49.869658,1496.089729,0.000000,0.000000,11720.528257,11720.528257,-0.029590,0.000000,-1.096175,11719.402492,11721.654023,11721.594842,11719.461672,16.741455,99.255329,25.655098,11719.402492,17.362078,1488.829939,-0.000000,0.000008,0.236017,-0.012382,3.806245,-1.085783,10.170410,-0.096229,-0.093890,10.000000,-0.050000,0.030000,0.187089,-0.024241,-0.092861,-0.016678,-0.021989,-0.031029
2026-03-09 00:05:20,0.780000,1,0,0.235695,0.882762,-0.001465,0.236017,0.000018,0.000025,2.294293,-0.231979,4.060795,-0.987670,16.733684,99.255329,149.824855,11719.402492,0.247113,0.921535,-0.001595,0.247113,3.877228,-0.013003,1.109543,1.569136,0.000000,-0.070621,50.000000,49.764305,1492.929145,0.000000,0.000000,11719.678070,11719.678070,-0.028453,0.000000,-1.105154,11718.544464,11720.811677,11720.754772,11718.601369,16.740426,99.242468,25.666068,11718.544464,17.360807,1488.637023,-0.000000,0.000008,0.247113,-0.013003,3.877228,-1.109543,10.184344,-0.070702,-0.071865,10.000000,-0.050000,0.030000,0.188176,-0.026563,-0.091656,-0.003832,0.005860,-0.010210
2026-03-09 00:05:20,0.790000,1,0,0.163208,0.921535,-0.001595,0.247113,0.000000,0.000008,2.372329,-0.127677,3.755715,-0.695804,16.714298,99.242468,150.002135,11718.544464,0.258443,0.961010,-0.001736,0.258443,3.947493,-0.014061,1.133042,1.569065,0.000000,-0.073723,50.000000,49.836792,1495.103745,0.000000,0.000000,11724.328186,11724.328186,-0.011634,0.000000,-1.116177,11723.200376,11725.455996,11725.432729,11723.223643,16.739397,99.229602,25.677031,11723.200376,17.367704,1488.444030,-0.000000,0.000009,0.258443,-0.014061,3.947493,-1.133042,10.193712,-0.114882,-0.091639,10.000000,-0.050000,0.030000,0.189217,-0.028878,-0.090428,0.004495,-0.036004,-0.031211
2026-03-09 00:05:20,0.800000,1,0,0.456857,0.961010,-0.001736,0.258443,-0.000009,0.000002,0.000000,-0.312048,4.029351,-1.152169,16.674533,99.229602,150.001065,11723.200376,0.270013,1.001179,-0.001880,0.270013,4.016967,-0.014415,1.156965,1.568990,0.000000,-0.076881,50.000000,49.543143,1486.294292,0.000000,0.000000,11718.124242,11718.124242,-0.034748,0.000000,-1.126783,11716.962711,11719.285773,11719.216278,11717.032207,16.738368,99.216743,25.687976,11716.962711,17.358463,1488.251139,-0.000000,0.000009,0.270013,-0.014415,4.016967,-1.156965,10.194439,-0.045145,-0.019170,10.000000,-0.050000,0.030000,0.190211,-0.031187,-0.089177,0.004227,0.036041,0.040007
2026-03-09 00:05:20,0.810000,1,0,0.424938,1.001179,-0.001880,0.270013,0.000005,0.000020,1.685483,-0.105168,3.906378,-1.109205,16.767125,99.216743,150.076862,11716.962711,0.281818,1.042039,-0.002029,0.281818,4.085954,-0.014858,1.180485,1.568918,0.000000,-0.080094,50.000000,49.575062,1487.251857,0.000000,0.000000,11721.876876,11721.876876,0.004243,0.000000,-1.136878,11720.744241,11723.009510,11723.017996,11720.735755,16.737339,99.203879,25.698913,11720.744241,17.364066,1488.058186,-0.000000,0.000009,0.281818,-0.014858,4.085954,-1.180485,10.227471,-0.054496,-0.050817,10.000000,-0.050000,0.030000,0.191159,-0.033488,-0.087905,0.036312,0.028992,0.007088
2026-03-09 00:05:20,0.820000,1,0,0.622415,1.042039,-0.002029,0.281818,-0.000007,0.000018,2.250131,-0.242023,4.010986,-0.862261,16.734156,99.203879,149.705892,11720.744241,0.293851,1.083576,-0.002186,0.293851,4.153732,-0.015763,1.203336,1.568850,0.000000,-0.083363,50.000000,49.377585,1481.327561,0.000000,0.000000,11718.896566,11718.896566,-0.001040,0.000000,-1.148340,11717.747186,11720.045945,11720.043865,11717.749266,16.736310,99.191019,25.709836,11717.747186,17.359625,1487.865282,-0.000000,0.000010,0.293851,-0.015763,4.153732,-1.203336,10.187522,-0.101108,-0.094217,10.000000,-0.050000,0.030000,0.192059,-0.035780,-0.086611,-0.004537,-0.015328,-0.037606
2026-03-09 00:05:20,0.830000,1,0,0.133128,1.083576,-0.002186,0.293851,-0.000021,0.000020,0.102124,-0.470093,3.551772,-1.311240,16.754007,99.191019,150.277023,11717.747186,0.306118,1.125779,-0.002354,0.306118,4.220323,-0.016761,1.226727,1.568779,0.000000,-0.086686,50.000000,49.866872,1496.006146,0.000000,0.000000,11736.764461,11736.764461,-0.023636,0.000000,-1.156097,11735.584728,11737.944194,11737.896922,11735.632000,16.735282,99.178139,25.720764,11735.584728,17.386051,1487.672085,-0.000000,0.000010,0.306118,-0.016761,4.220323,-1.226727,10.153674,-0.111029,-0.062786,10.000000,-0.050000,0.030000,0.192911,-0.038064,-0.085296,-0.039237,-0.022965,-0.007490
2026-03-09 00:05:20,0.840000,1,0,0.445296,1.125779,-0.002354,0.306118,0.000011,0.000007,1.111272,0.496331,3.898732,-1.241803,16.671063,99.178139,150.055606,11735.584728,0.318615,1.168638,-0.002528,0.318615,4.285914,-0.017417,1.249643,1.568705,0.000000,-0.090063,50.000000,49.554704,1486.641119,0.000000,0.000000,11730.688702,11730.688702,-0.026639,0.000000,-1.163718,11729.498345,11731.879060,11731.825781,11729.551624,16.734251,99.165266,25.731675,11729.498345,17.377035,1487.478987,-0.000000,0.000010,0.318615,-0.017417,4.285914,-1.249643,10.133999,-0.077669,-0.079784,10.000000,-0.050000,0.030000,0.193717,-0.040338,-0.083960,-0.059718,0.012669,-0.025824
2026-03-09 00:05:20,0.850000,1,0,0.326912,1.168638,-0.002528,0.318615,-0.000013,-0.000019,2.579576,-0.650908,4.683366,-1.453639,16.723450,99.165266,149.928702,11729.498345,0.331341,1.212147,-0.002705,0.331341,4.350813,-0.017683,1.272642,1.568633,0.000000,-0.093491,50.000000,49.673088,1490.192637,0.000000,0.000000,11737.764505,11737.764505,-0.010040,0.000000,-1.172030,11736.582435,11738.946575,11738.926496,11736.602515,16.733221,99.152385,25.742582,11736.582435,17.387530,1487.285773,-0.000000,0.000011,0.331341,-0.017683,4.350813,-1.272642,10.148009,-0.039164,-0.069754,10.000000,-0.050000,0.030000,0.194474,-0.042602,-0.082603,-0.046465,0.053439,-0.017151
2026-03-09 00:05:20,0.860000,1,0,0.290005,1.212147,-0.002705,0.331341,-0.000002,-0.000012,0.000000,0.379055,4.079367,-1.310317,16.715050,99.152385,149.602302,11736.582435,0.344300,1.256299,-0.002892,0.344300,4.415251,-0.018706,1.295926,1.568565,0.000000,-0.096972,50.000000,49.709995,1491.299848,0.000000,0.000000,11742.581211,11742.581211,0.006951,0.000000,-1.181690,11741.406472,11743.755950,11743.769852,11741.392570,16.732191,99.139499,25.753481,11741.406472,17.394676,1487.092479,-0.000000,0.000011,0.344300,-0.018706,4.415251,-1.295926,10.184889,-0.115179,-0.034425,10.000000,-0.050000,0.030000,0.195183,-0.044856,-0.081225,-0.010294,-0.020322,0.016800
2026-03-09 00:05:20,0.870000,1,0,0.488377,1.256299,-0.002892,0.344300,-0.000023,0.000011,0.000000,-0.457180,4.911925,-1.957815,16.766952,99.139499,150.229538,11741.406472,0.357489,1.301094,-0.003081,0.357489,4.479477,-0.018900,1.318870,1.568494,0.000000,-0.100504,50.000000,49.511623,1485.348696,0.000000,0.000000,11740.506746,11740.506746,-0.025269,0.000000,-1.192373,11739.289103,11741.724388,11741.673850,11739.339641,16.731160,99.126615,25.764367,11739.289103,17.391539,1486.899220,-0.000000,0.000012,0.357489,-0.018900,4.479477,-1.318870,10.245508,-0.033060,-0.046151,10.000000,-0.050000,0.030000,0.195845,-0.047099,-0.079828,0.049664,0.064039,0.003677
2026-03-09 00:05:20,0.880000,1,0,0.287536,1.301094,-0.003081,0.357489,-0.000003,0.000008,0.000000,0.001539,4.267133,-1.382161,16.744243,99.126615,149.917501,11739.289103,0.370909,1.346516,-0.003278,0.370909,4.542220,-0.019685,1.341951,1.568428,0.000000,-0.104088,50.000000,49.712464,1491.373917,0.000000,0.000000,11750.671287,11750.671287,0.009122,0.000000,-1.204187,11749.476222,11751.866353,11751.884596,11749.457978,16.730129,99.113720,25.775251,11749.476222,17.406631,1486.705793,-0.000000,0.000012,0.370909,-0.019685,4.542220,-1.341951,10.182570,-0.092525,-0.036853,10.000000,-0.050000,0.030000,0.196457,-0.049330,-0.078410,-0.013888,0.006805,0.011558
2026-03-09 00:05:20,0.890000,1,0,0.479875,1.346516,-0.003278,0.370909,-0.000028,0.000022,0.000000,0.053697,4.949542,-1.694702,16.710699,99.113720,149.801678,11749.476222,0.384556,1.392558,-0.003485,0.384556,4.604200,-0.020758,1.364734,1.568362,0.000000,-0.107722,50.000000,49.520125,1485.603762,0.000000,0.000000,11749.193284,11749.193284,-0.014794,0.000000,-1.209632,11747.968859,11750.417710,11750.388122,11747.998447,16.729098,99.100826,25.786122,11747.968859,17.404398,1486.512391,-0.000000,0.000013,0.384556,-0.020758,4.604200,-1.364734,10.188602,-0.121949,-0.045243,10.000000,-0.050000,0.030000,0.197022,-0.051549,-0.076974,-0.008420,-0.020400,0.001731
2026-03-09 00:05:20,0.900000,1,0,0.366225,1.392558,-0.003485,0.384556,-0.000003,0.000017,0.000000,0.348905,4.337171,-1.456646,16.702283,99.100826,149.746917,11747.968859,0.398430,1.439210,-0.003703,0.398430,4.665240,-0.021720,1.387388,1.568293,0.000000,-0.111405,50.000000,49.633775,1489.013244,0.000000,0.000000,11757.162030,11757.162030,-0.025049,0.000000,-1.218366,11755.918614,11758.405445,11758.355347,11755.968712,16.728066,99.087924,25.796990,11755.918614,17.416176,1486.318857,-0.000000,0.000013,0.398430,-0.021720,4.665240,-1.387388,10.179418,-0.111657,-0.057376,10.000000,-0.050000,0.030000,0.197538,-0.053755,-0.075518,-0.018119,-0.007902,-0.011858
